Message ID	Frame counter	Reserved	Message length	GNSS Week Number	GNSS TOW	Timestamp [us]	AccX [m/s²]	AccY [m/s²]	AccZ [m/s²]	OmgX [deg/s]	OmgY [def/s]	OmgZ [def/s]	Roll [deg]	Pitch [deg]	Yaw [deg]	IMU Temp [°C]	Vx/Vnorth [m/s]	Vy/Veast [m/s]	Vz/Vdown [m/s]	Longitude [deg]	Latitude [deg]	Altitude/MSL [m]	Mag. heading [deg]	Odometer [m/s]	Pressure altitude [m]	System status	Additional system status	AHRS status	Reserved
0	 58	 0	 116	 0	 1194000	 4542469	 +2.53121	 -5.90621	 -7.58778	 -0.3464	 +0.1034	 +0.0318	 -0.14408	 +0.69171	 -1.85198	 +42.81176	 -86.2628	 +24.3318	 +22.6186	 +0.0003706	 -0.0042956	 -54.4635	 +1.3030	 +0.0000	 +413.4731	 9990144	 13828	 335547859	 0
0	 59	 0	 116	 0	 1194000	 4547469	 +2.55771	 -5.90116	 -7.55948	 -0.3319	 +0.0494	 -0.0033	 -0.14433	 +0.69168	 -1.85241	 +42.90588	 -86.2917	 +24.3537	 +22.6367	 +0.0003717	 -0.0042995	 -54.5766	 +1.5842	 +0.0000	 +413.4731	 9990144	 13828	 335547859	 0
0	 60	 0	 116	 0	 1194000	 4552469	 +2.55532	 -5.90267	 -7.55146	 -0.3510	 +0.1369	 +0.0819	 -0.14457	 +0.69165	 -1.85284	 +42.85882	 -86.3205	 +24.3755	 +22.6549	 +0.0003728	 -0.0043034	 -54.6899	 +1.5841	 +0.0000	 +413.4731	 9990144	 13828	 335547859	 0
0	 61	 0	 116	 0	 1194000	 4557469	 +2.55862	 -5.92456	 -7.60745	 -0.4119	 +0.1517	 -0.0093	 -0.14483	 +0.69163	 -1.85328	 +42.85882	 -86.3495	 +24.3975	 +22.6728	 +0.0003739	 -0.0043073	 -54.8032	 +1.5839	 +0.0000	 +413.4731	 9990144	 13828	 335547859	 0
0	 62	 0	 116	 0	 1194000	 4562469	 +2.54057	 -5.91927	 -7.56314	 -0.4341	 +0.2010	 +0.0210	 -0.14509	 +0.69161	 -1.85372	 +42.95294	 -86.3784	 +24.4195	 +22.6910	 +0.0003750	 -0.0043112	 -54.9166	 +1.5838	 +0.0000	 +413.4731	 9990144	 13828	 335547859	 0
0	 63	 0	 116	 0	 1194000	 4567462	 +2.55617	 -5.93528	 -7.52205	 -0.3977	 +0.1661	 +0.0133	 -0.14534	 +0.69159	 -1.85415	 +42.85882	 -86.4075	 +24.4412	 +22.7094	 +0.0003761	 -0.0043151	 -55.0301	 +1.5836	 +0.0000	 +413.8180	 9990144	 13828	 335547859	 0
0	 64	 0	 116	 0	 1194000	 4572469	 +2.55244	 -5.89497	 -7.55125	 -0.3625	 +0.1421	 +0.0650	 -0.14559	 +0.69156	 -1.85458	 +42.85882	 -86.4363	 +24.4631	 +22.7276	 +0.0003772	 -0.0043190	 -55.1437	 +1.5834	 +0.0000	 +413.8180	 9990144	 13828	 335547859	 0
0	 65	 0	 116	 0	 1194000	 4577469	 +2.55106	 -5.92023	 -7.57286	 -0.4019	 +0.2155	 -0.0064	 -0.14585	 +0.69154	 -1.85502	 +42.85882	 -86.4652	 +24.4851	 +22.7457	 +0.0003783	 -0.0043230	 -55.2574	 +1.5833	 +0.0000	 +413.8180	 9990144	 13828	 335547859	 0
0	 66	 0	 116	 0	 1194000	 4582469	 +2.54507	 -5.89649	 -7.60194	 -0.4204	 +0.0988	 -0.0672	 -0.14611	 +0.69151	 -1.85547	 +42.85882	 -86.4941	 +24.5071	 +22.7637	 +0.0003794	 -0.0043269	 -55.3712	 +1.5831	 +0.0000	 +413.8180	 9990144	 13828	 335547859	 0
0	 67	 0	 116	 0	 1194000	 4587469	 +2.54658	 -5.88746	 -7.56231	 -0.3534	 +0.0920	 -0.0688	 -0.14637	 +0.69148	 -1.85591	 +42.85882	 -86.5228	 +24.5291	 +22.7819	 +0.0003805	 -0.0043308	 -55.4850	 +1.4568	 +0.0000	 +413.8180	 9990144	 13828	 335547859	 0
0	 68	 0	 116	 0	 1194000	 4592469	 +2.54509	 -5.90272	 -7.60250	 -0.2473	 +0.1754	 +0.0481	 -0.14660	 +0.69146	 -1.85634	 +42.85882	 -86.5517	 +24.5512	 +22.8000	 +0.0003816	 -0.0043347	 -55.5990	 +1.4566	 +0.0000	 +413.8180	 9990144	 13828	 335547859	 0
0	 69	 0	 116	 0	 1194000	 4597469	 +2.56227	 -5.94101	 -7.56900	 -0.3911	 +0.0241	 +0.0577	 -0.14685	 +0.69143	 -1.85677	 +42.85882	 -86.5807	 +24.5731	 +22.8182	 +0.0003827	 -0.0043386	 -55.7130	 +1.4565	 +0.0000	 +413.8180	 9990144	 13828	 335547859	 0
0	 70	 0	 116	 0	 1194000	 4602469	 +2.52640	 -5.90567	 -7.60336	 -0.3236	 +0.1731	 -0.1101	 -0.14711	 +0.69140	 -1.85722	 +42.95294	 -86.6096	 +24.5953	 +22.8363	 +0.0003838	 -0.0043425	 -55.8272	 +1.4563	 +0.0000	 +413.8180	 9990144	 13828	 335547859	 0
0	 71	 0	 116	 0	 1194000	 4607469	 +2.54447	 -5.92601	 -7.54186	 -0.3847	 +0.1228	 -0.0565	 -0.14737	 +0.69137	 -1.85767	 +42.76471	 -86.6386	 +24.6173	 +22.8546	 +0.0003849	 -0.0043464	 -55.9414	 +1.4561	 +0.0000	 +413.8180	 9990144	 13828	 335547859	 0
0	 72	 0	 116	 0	 1194000	 4612469	 +2.54393	 -5.91978	 -7.55418	 -0.3610	 +0.1118	 -0.0520	 -0.14763	 +0.69134	 -1.85811	 +42.85882	 -86.6675	 +24.6393	 +22.8729	 +0.0003860	 -0.0043504	 -56.0557	 +1.4560	 +0.0000	 +413.8180	 9990144	 13828	 335547859	 0
0	 73	 0	 116	 0	 1194000	 4617469	 +2.54102	 -5.90793	 -7.54033	 -0.3743	 +0.1455	 +0.0012	 -0.14788	 +0.69132	 -1.85855	 +42.85882	 -86.6964	 +24.6612	 +22.8912	 +0.0003871	 -0.0043543	 -56.1701	 +1.4558	 +0.0000	 +413.8180	 9990144	 13828	 335547859	 0
0	 74	 0	 116	 0	 1194000	 4622469	 +2.53813	 -5.93703	 -7.58777	 -0.3361	 +0.1049	 -0.0003	 -0.14813	 +0.69129	 -1.85898	 +42.85882	 -86.7254	 +24.6834	 +22.9094	 +0.0003882	 -0.0043582	 -56.2846	 +1.4556	 +0.0000	 +413.8180	 9990144	 13828	 335547859	 0
0	 75	 0	 116	 0	 1194000	 4627469	 +2.53075	 -5.90338	 -7.57442	 -0.4464	 +0.1854	 +0.0228	 -0.14839	 +0.69127	 -1.85942	 +42.76471	 -86.7542	 +24.7055	 +22.9277	 +0.0003893	 -0.0043621	 -56.3992	 +1.4759	 +0.0000	 +413.8180	 9990144	 13828	 335547859	 0
0	 76	 0	 116	 0	 1194000	 4632469	 +2.51745	 -5.89946	 -7.55205	 -0.4144	 +0.1981	 +0.0453	 -0.14864	 +0.69125	 -1.85985	 +42.85882	 -86.7830	 +24.7276	 +22.9461	 +0.0003905	 -0.0043660	 -56.5139	 +1.4758	 +0.0000	 +413.8180	 9990144	 13828	 335547859	 0
0	 77	 0	 116	 0	 1194000	 4637469	 +2.53569	 -5.90988	 -7.55658	 -0.4245	 +0.2384	 +0.0012	 -0.14890	 +0.69123	 -1.86029	 +42.85882	 -86.8119	 +24.7497	 +22.9644	 +0.0003916	 -0.0043700	 -56.6287	 +1.4756	 +0.0000	 +413.8180	 9990144	 13828	 335547859	 0
0	 78	 0	 116	 0	 1194000	 4642469	 +2.52492	 -5.89907	 -7.59577	 -0.3651	 +0.1303	 +0.0591	 -0.14915	 +0.69120	 -1.86072	 +42.85882	 -86.8407	 +24.7719	 +22.9826	 +0.0003927	 -0.0043739	 -56.7435	 +1.4755	 +0.0000	 +413.8180	 9990144	 13828	 335547859	 0
0	 79	 0	 116	 0	 1194000	 4647469	 +2.51725	 -5.90003	 -7.60141	 -0.3717	 +0.1376	 -0.0201	 -0.14940	 +0.69118	 -1.86116	 +42.95294	 -86.8695	 +24.7942	 +23.0008	 +0.0003938	 -0.0043778	 -56.8585	 +1.4753	 +0.0000	 +413.2147	 9990144	 13828	 335547859	 0
0	 80	 0	 116	 0	 1194000	 4652469	 +2.54613	 -5.92084	 -7.60263	 -0.2740	 +0.1329	 +0.0254	 -0.14965	 +0.69115	 -1.86159	 +42.85882	 -86.8985	 +24.8164	 +23.0190	 +0.0003949	 -0.0043817	 -56.9735	 +1.4751	 +0.0000	 +413.2147	 9990144	 13828	 335547859	 0
0	 81	 0	 116	 0	 1194000	 4657469	 +2.57307	 -5.90826	 -7.56252	 -0.3422	 +0.1874	 +0.0377	 -0.14989	 +0.69113	 -1.86203	 +42.85882	 -86.9274	 +24.8384	 +23.0372	 +0.0003960	 -0.0043857	 -57.0887	 +1.4750	 +0.0000	 +413.2147	 9990144	 13828	 335547859	 0
0	 82	 0	 116	 0	 1194000	 4662469	 +2.54869	 -5.92127	 -7.55674	 -0.3738	 +0.1032	 -0.0154	 -0.15015	 +0.69110	 -1.86247	 +42.81176	 -86.9563	 +24.8605	 +23.0555	 +0.0003971	 -0.0043896	 -57.2039	 +1.4748	 +0.0000	 +413.2147	 9990144	 13828	 335547859	 0
0	 83	 0	 116	 0	 1194000	 4667469	 +2.56201	 -5.91918	 -7.60009	 -0.3777	 +0.1007	 +0.0134	 -0.15040	 +0.69107	 -1.86290	 +42.90588	 -86.9853	 +24.8827	 +23.0736	 +0.0003983	 -0.0043935	 -57.3192	 +1.4571	 +0.0000	 +413.2147	 9990144	 13828	 335547859	 0
0	 84	 0	 116	 0	 1194000	 4672488	 +2.51211	 -5.90952	 -7.58222	 -0.3068	 +0.1532	 -0.0097	 -0.15065	 +0.69104	 -1.86334	 +43.04706	 -87.0141	 +24.9050	 +23.0920	 +0.0003994	 -0.0043975	 -57.4346	 +1.4569	 +0.0000	 +413.2147	 9990144	 13828	 335547859	 0
0	 85	 0	 116	 0	 1194000	 4677573	 +2.52033	 -5.91756	 -7.57703	 -0.3854	 +0.1925	 -0.0065	 -0.15090	 +0.69102	 -1.86378	 +42.85882	 -87.0430	 +24.9272	 +23.1103	 +0.0004005	 -0.0044014	 -57.5502	 +1.4567	 +0.0000	 +413.2147	 9990144	 13828	 335547859	 0
0	 86	 0	 116	 0	 1194000	 4682557	 +2.54322	 -5.89895	 -7.57673	 -0.2774	 +0.2030	 +0.0040	 -0.15115	 +0.69100	 -1.86422	 +42.95294	 -87.0718	 +24.9494	 +23.1286	 +0.0004016	 -0.0044053	 -57.6657	 +1.4566	 +0.0000	 +413.2147	 9990144	 13828	 335547859	 0
0	 87	 0	 116	 0	 1195000	 4687551	 +2.52174	 -5.92762	 -7.59342	 -0.3377	 +0.1399	 +0.0423	 -0.15139	 +0.69097	 -1.86465	 +42.85882	 -87.1008	 +24.9718	 +23.1469	 +0.0004027	 -0.0044093	 -57.7814	 +1.4564	 +0.0000	 +413.2147	 9990144	 13828	 335547859	 0
0	 88	 0	 116	 0	 1195000	 4692528	 +2.53404	 -5.91136	 -7.61921	 -0.3608	 +0.1562	 +0.0422	 -0.15164	 +0.69094	 -1.86508	 +42.95294	 -87.1296	 +24.9941	 +23.1650	 +0.0004039	 -0.0044132	 -57.8972	 +1.4563	 +0.0000	 +413.2147	 9990144	 13828	 335547859	 0
0	 89	 0	 116	 0	 1195000	 4697469	 +2.56010	 -5.91208	 -7.58290	 -0.3263	 +0.0905	 -0.0795	 -0.14508	 +0.68659	 -1.85793	 +42.90588	 -86.9671	 +24.3156	 +22.5986	 +0.0003668	 -0.0044049	 -54.0882	 +1.4561	 +0.0000	 +413.2147	 9990144	 13828	 335547859	 0
0	 90	 0	 116	 0	 1195000	 4702469	 +2.54707	 -5.90651	 -7.58915	 -0.5108	 +0.1582	 -0.0700	 -0.14535	 +0.68657	 -1.85837	 +42.90588	 -86.9959	 +24.3376	 +22.6166	 +0.0003679	 -0.0044088	 -54.2012	 +1.4599	 +0.0000	 +413.2147	 9990144	 13828	 335547859	 0
0	 91	 0	 116	 0	 1195000	 4707469	 +2.55052	 -5.92884	 -7.60257	 -0.4482	 +0.0624	 +0.0624	 -0.14560	 +0.68654	 -1.85880	 +42.81176	 -87.0249	 +24.3596	 +22.6346	 +0.0003690	 -0.0044128	 -54.3144	 +1.4084	 +0.0000	 +413.2147	 9990144	 13828	 335547859	 0
0	 92	 0	 116	 0	 1195000	 4712469	 +2.51053	 -5.88149	 -7.57407	 -0.4171	 +0.1585	 +0.0438	 -0.14586	 +0.68651	 -1.85923	 +42.90588	 -87.0535	 +24.3817	 +22.6528	 +0.0003701	 -0.0044167	 -54.4276	 +1.4082	 +0.0000	 +413.2147	 9990144	 13828	 335547859	 0
0	 93	 0	 116	 0	 1195000	 4717469	 +2.57854	 -5.92520	 -7.55182	 -0.2691	 +0.1703	 -0.0509	 -0.14610	 +0.68649	 -1.85967	 +42.90588	 -87.0825	 +24.4035	 +22.6709	 +0.0003712	 -0.0044206	 -54.5409	 +1.4081	 +0.0000	 +413.2147	 9990144	 13828	 335547859	 0
0	 94	 0	 116	 0	 1195000	 4722469	 +2.56698	 -5.92676	 -7.56143	 -0.4078	 +0.0931	 -0.0230	 -0.14636	 +0.68646	 -1.86011	 +42.90588	 -87.1114	 +24.4254	 +22.6889	 +0.0003723	 -0.0044246	 -54.6543	 +1.4079	 +0.0000	 +413.2147	 9990144	 13828	 335547859	 0
0	 95	 0	 116	 0	 1195000	 4727469	 +2.55111	 -5.92216	 -7.55811	 -0.3530	 +0.1703	 +0.0316	 -0.14660	 +0.68644	 -1.86054	 +42.90588	 -87.1404	 +24.4473	 +22.7071	 +0.0003734	 -0.0044285	 -54.7678	 +1.4078	 +0.0000	 +413.2147	 9990144	 13828	 335547859	 0
0	 96	 0	 116	 0	 1195000	 4732469	 +2.54320	 -5.89986	 -7.58909	 -0.3640	 +0.0797	 -0.0687	 -0.14686	 +0.68641	 -1.86098	 +42.90588	 -87.1691	 +24.4693	 +22.7252	 +0.0003745	 -0.0044325	 -54.8814	 +1.4076	 +0.0000	 +413.2147	 9990144	 13828	 335547859	 0
0	 97	 0	 116	 0	 1195000	 4737469	 +2.55610	 -5.89745	 -7.59496	 -0.2741	 +0.1557	 +0.0589	 -0.14709	 +0.68638	 -1.86141	 +43.00000	 -87.1979	 +24.4913	 +22.7432	 +0.0003756	 -0.0044364	 -54.9950	 +1.4074	 +0.0000	 +413.2147	 9990144	 13828	 335547859	 0
0	 98	 0	 116	 0	 1195000	 4742469	 +2.54983	 -5.94389	 -7.56697	 -0.3072	 +0.1070	 -0.0827	 -0.14734	 +0.68635	 -1.86185	 +42.90588	 -87.2269	 +24.5133	 +22.7613	 +0.0003767	 -0.0044403	 -55.1088	 +1.4073	 +0.0000	 +413.2147	 9990144	 13828	 335547859	 0
0	 99	 0	 116	 0	 1195000	 4747469	 +2.54598	 -5.94067	 -7.55419	 -0.3822	 +0.1376	 -0.0383	 -0.14760	 +0.68633	 -1.86229	 +43.00000	 -87.2559	 +24.5353	 +22.7795	 +0.0003778	 -0.0044443	 -55.2226	 +1.5475	 +0.0000	 +413.2147	 9990144	 13828	 335547859	 0
0	 100	 0	 116	 0	 1195000	 4752469	 +2.55387	 -5.90924	 -7.58044	 -0.3520	 +0.0810	 -0.0049	 -0.14785	 +0.68629	 -1.86273	 +42.90588	 -87.2848	 +24.5573	 +22.7976	 +0.0003789	 -0.0044482	 -55.3366	 +1.5474	 +0.0000	 +413.2147	 9990144	 13828	 335547859	 0
0	 101	 0	 116	 0	 1195000	 4757469	 +2.53954	 -5.92796	 -7.58199	 -0.3089	 +0.1401	 +0.0529	 -0.14809	 +0.68627	 -1.86316	 +42.90588	 -87.3137	 +24.5794	 +22.8158	 +0.0003800	 -0.0044522	 -55.4506	 +1.5472	 +0.0000	 +413.2147	 9990144	 13828	 335547859	 0
0	 102	 0	 116	 0	 1195000	 4762469	 +2.57454	 -5.91817	 -7.57820	 -0.3048	 +0.1276	 +0.0026	 -0.14833	 +0.68624	 -1.86359	 +42.81176	 -87.3426	 +24.6014	 +22.8338	 +0.0003811	 -0.0044561	 -55.5648	 +1.5471	 +0.0000	 +413.2147	 9990144	 13828	 335547859	 0
0	 103	 0	 116	 0	 1195000	 4767469	 +2.52808	 -5.92413	 -7.57079	 -0.3414	 +0.1728	 +0.0589	 -0.14858	 +0.68622	 -1.86402	 +43.00000	 -87.3715	 +24.6235	 +22.8520	 +0.0003822	 -0.0044601	 -55.6790	 +1.5469	 +0.0000	 +413.4731	 9990144	 13828	 335547859	 0
0	 104	 0	 116	 0	 1195000	 4772469	 +2.52015	 -5.89764	 -7.58998	 -0.3367	 +0.1395	 -0.0232	 -0.14882	 +0.68619	 -1.86446	 +42.81176	 -87.4002	 +24.6457	 +22.8702	 +0.0003833	 -0.0044640	 -55.7933	 +1.5468	 +0.0000	 +413.4731	 9990144	 13828	 335547859	 0
0	 105	 0	 116	 0	 1195000	 4777469	 +2.54882	 -5.91354	 -7.51974	 -0.3188	 +0.2222	 -0.0325	 -0.14907	 +0.68617	 -1.86490	 +42.85882	 -87.4291	 +24.6676	 +22.8886	 +0.0003844	 -0.0044680	 -55.9077	 +1.5466	 +0.0000	 +413.4731	 9990144	 13828	 335547859	 0
0	 106	 0	 116	 0	 1195000	 4782469	 +2.55765	 -5.90501	 -7.57962	 -0.2382	 +0.1772	 -0.0067	 -0.14931	 +0.68615	 -1.86534	 +42.95294	 -87.4579	 +24.6897	 +22.9067	 +0.0003855	 -0.0044719	 -56.0222	 +1.5465	 +0.0000	 +413.4731	 9990144	 13828	 335547859	 0
0	 107	 0	 116	 0	 1195000	 4787462	 +2.55642	 -5.91582	 -7.55123	 -0.4010	 +0.2104	 -0.0202	 -0.14957	 +0.68613	 -1.86578	 +42.85882	 -87.4868	 +24.7117	 +22.9249	 +0.0003866	 -0.0044759	 -56.1367	 +1.4612	 +0.0000	 +413.4731	 9990144	 13828	 335547859	 0
0	 108	 0	 116	 0	 1195000	 4792469	 +2.55876	 -5.93819	 -7.60531	 -0.3723	 +0.2045	 -0.0720	 -0.14982	 +0.68610	 -1.86622	 +42.95294	 -87.5158	 +24.7338	 +22.9430	 +0.0003877	 -0.0044798	 -56.2514	 +1.4611	 +0.0000	 +413.4731	 9990144	 13828	 335547859	 0
0	 109	 0	 116	 0	 1195000	 4797469	 +2.54095	 -5.92602	 -7.59244	 -0.4230	 +0.1649	 +0.0089	 -0.15008	 +0.68608	 -1.86666	 +42.85882	 -87.5447	 +24.7560	 +22.9611	 +0.0003889	 -0.0044838	 -56.3662	 +1.4609	 +0.0000	 +413.4731	 9990144	 13828	 335547859	 0
0	 110	 0	 116	 0	 1195000	 4802469	 +2.55538	 -5.90743	 -7.54097	 -0.3570	 +0.1798	 +0.0925	 -0.15032	 +0.68606	 -1.86708	 +42.85882	 -87.5735	 +24.7780	 +22.9794	 +0.0003900	 -0.0044878	 -56.4810	 +1.4607	 +0.0000	 +413.4731	 9990144	 13828	 335547859	 0
0	 111	 0	 116	 0	 1195000	 4807469	 +2.52266	 -5.91477	 -7.58289	 -0.3561	 +0.1519	 -0.0231	 -0.15057	 +0.68603	 -1.86752	 +42.85882	 -87.6024	 +24.8003	 +22.9977	 +0.0003911	 -0.0044917	 -56.5960	 +1.4606	 +0.0000	 +413.4731	 9990144	 13828	 335547859	 0
0	 112	 0	 116	 0	 1195000	 4812469	 +2.56006	 -5.88117	 -7.53843	 -0.3383	 +0.1502	 -0.0476	 -0.15082	 +0.68600	 -1.86796	 +42.85882	 -87.6311	 +24.8222	 +23.0159	 +0.0003922	 -0.0044957	 -56.7110	 +1.4604	 +0.0000	 +413.4731	 9990144	 13828	 335547859	 0
0	 113	 0	 116	 0	 1195000	 4817469	 +2.53330	 -5.91369	 -7.56467	 -0.3379	 +0.1059	 +0.0818	 -0.15106	 +0.68597	 -1.86838	 +42.85882	 -87.6599	 +24.8444	 +23.0342	 +0.0003933	 -0.0044997	 -56.8261	 +1.4603	 +0.0000	 +413.4731	 9990144	 13828	 335547859	 0
0	 114	 0	 116	 0	 1195000	 4822469	 +2.54108	 -5.92979	 -7.56278	 -0.3061	 +0.1459	 +0.0908	 -0.15130	 +0.68595	 -1.86881	 +42.85882	 -87.6889	 +24.8665	 +23.0525	 +0.0003944	 -0.0045036	 -56.9413	 +1.4601	 +0.0000	 +413.4731	 9990144	 13828	 335547859	 0
0	 115	 0	 116	 0	 1195000	 4827469	 +2.54960	 -5.92978	 -7.59347	 -0.3787	 +0.1455	 +0.0484	 -0.15155	 +0.68592	 -1.86924	 +42.95294	 -87.7178	 +24.8887	 +23.0707	 +0.0003955	 -0.0045076	 -57.0566	 +1.4559	 +0.0000	 +413.4731	 9990144	 13828	 335547859	 0
0	 116	 0	 116	 0	 1195000	 4832469	 +2.54651	 -5.88365	 -7.57710	 -0.4594	 +0.1094	 -0.0032	 -0.15180	 +0.68589	 -1.86968	 +42.85882	 -87.7465	 +24.9109	 +23.0889	 +0.0003967	 -0.0045115	 -57.1720	 +1.4558	 +0.0000	 +413.4731	 9990144	 13828	 335547859	 0
0	 117	 0	 116	 0	 1195000	 4837469	 +2.57633	 -5.89628	 -7.57960	 -0.4293	 +0.0989	 -0.0808	 -0.15206	 +0.68586	 -1.87012	 +42.95294	 -87.7753	 +24.9330	 +23.1070	 +0.0003978	 -0.0045155	 -57.2875	 +1.4556	 +0.0000	 +413.4731	 9990144	 13828	 335547859	 0
0	 118	 0	 116	 0	 1195000	 4842469	 +2.52593	 -5.88767	 -7.55949	 -0.4313	 +0.0873	 +0.0350	 -0.15232	 +0.68583	 -1.87055	 +42.85882	 -87.8040	 +24.9552	 +23.1253	 +0.0003989	 -0.0045195	 -57.4031	 +1.4554	 +0.0000	 +413.4731	 9990144	 13828	 335547859	 0
0	 119	 0	 116	 0	 1195000	 4847469	 +2.51834	 -5.90946	 -7.58603	 -0.3579	 +0.0349	 +0.0575	 -0.15256	 +0.68579	 -1.87098	 +42.95294	 -87.8328	 +24.9775	 +23.1436	 +0.0004000	 -0.0045235	 -57.5188	 +1.4553	 +0.0000	 +413.2147	 9990144	 13828	 335547859	 0
0	 120	 0	 116	 0	 1195000	 4852469	 +2.57670	 -5.91899	 -7.52355	 -0.3174	 +0.1193	 +0.0147	 -0.15280	 +0.68576	 -1.87141	 +42.95294	 -87.8617	 +24.9994	 +23.1620	 +0.0004012	 -0.0045274	 -57.6345	 +1.4551	 +0.0000	 +413.2147	 9990144	 13828	 335547859	 0
0	 121	 0	 116	 0	 1195000	 4857469	 +2.52203	 -5.89013	 -7.57438	 -0.3327	 +0.0930	 -0.0002	 -0.15305	 +0.68573	 -1.87184	 +42.85882	 -87.8904	 +25.0217	 +23.1803	 +0.0004023	 -0.0045314	 -57.7504	 +1.4550	 +0.0000	 +413.2147	 9990144	 13828	 335547859	 0
0	 122	 0	 116	 0	 1195000	 4862469	 +2.54129	 -5.90085	 -7.58674	 -0.3230	 +0.1276	 -0.0582	 -0.15330	 +0.68570	 -1.87228	 +42.95294	 -87.9192	 +25.0440	 +23.1986	 +0.0004034	 -0.0045354	 -57.8664	 +1.4548	 +0.0000	 +413.2147	 9990144	 13828	 335547859	 0
0	 123	 0	 116	 0	 1195000	 4867469	 +2.53617	 -5.89314	 -7.53871	 -0.5113	 +0.1040	 -0.0487	 -0.15356	 +0.68567	 -1.87272	 +42.95294	 -87.9480	 +25.0661	 +23.2170	 +0.0004045	 -0.0045394	 -57.9824	 +1.4546	 +0.0000	 +413.2147	 9990144	 13828	 335547859	 0
0	 124	 0	 116	 0	 1195000	 4872486	 +2.54923	 -5.91873	 -7.55360	 -0.4038	 +0.1752	 +0.0285	 -0.15382	 +0.68564	 -1.87316	 +42.85882	 -87.9769	 +25.0883	 +23.2354	 +0.0004057	 -0.0045433	 -58.0985	 +1.4545	 +0.0000	 +413.2147	 9990144	 13828	 335547859	 0
0	 125	 0	 116	 0	 1195000	 4877575	 +2.53128	 -5.90181	 -7.57275	 -0.3989	 +0.1634	 +0.0271	 -0.15407	 +0.68562	 -1.87359	 +42.85882	 -88.0056	 +25.1106	 +23.2537	 +0.0004068	 -0.0045473	 -58.2147	 +1.4543	 +0.0000	 +413.2147	 9990144	 13828	 335547859	 0
0	 126	 0	 116	 0	 1195000	 4882553	 +2.53620	 -5.91226	 -7.55419	 -0.2835	 +0.1982	 +0.0253	 -0.15431	 +0.68559	 -1.87402	 +42.85882	 -88.0345	 +25.1328	 +23.2721	 +0.0004079	 -0.0045513	 -58.3311	 +1.4542	 +0.0000	 +413.2147	 9990144	 13828	 335547859	 0
0	 127	 0	 116	 0	 1195000	 4887558	 +2.57307	 -5.92817	 -7.60639	 -0.2944	 +0.1565	 +0.0131	 -0.15455	 +0.68557	 -1.87445	 +42.85882	 -88.0634	 +25.1551	 +23.2902	 +0.0004090	 -0.0045553	 -58.4475	 +1.4540	 +0.0000	 +412.6977	 9990144	 13828	 335547859	 0
0	 128	 0	 116	 0	 1195000	 4892540	 +2.57483	 -5.89585	 -7.59303	 -0.4532	 +0.1493	 +0.0044	 -0.15481	 +0.68554	 -1.87489	 +42.85882	 -88.0922	 +25.1773	 +23.3083	 +0.0004102	 -0.0045593	 -58.5640	 +1.4538	 +0.0000	 +412.6977	 9990144	 13828	 335547859	 0
0	 129	 0	 116	 0	 1195000	 4897469	 +2.53434	 -5.91703	 -7.54322	 -0.2939	 +0.1127	 -0.0110	 -0.14817	 +0.68115	 -1.86774	 +42.90588	 -87.9288	 +24.4939	 +22.7359	 +0.0003728	 -0.0045508	 -54.7125	 +1.4537	 +0.0000	 +412.6977	 9990144	 13828	 335547859	 0
0	 130	 0	 116	 0	 1195000	 4902469	 +2.57903	 -5.86445	 -7.57293	 -0.3349	 +0.1105	 +0.0483	 -0.14841	 +0.68112	 -1.86817	 +42.90588	 -87.9574	 +24.5157	 +22.7539	 +0.0003739	 -0.0045547	 -54.8262	 +1.4575	 +0.0000	 +412.6977	 9990144	 13828	 335547859	 0
0	 131	 0	 116	 0	 1195000	 4907469	 +2.56595	 -5.93016	 -7.58208	 -0.2001	 +0.1165	 -0.0311	 -0.14865	 +0.68109	 -1.86860	 +42.90588	 -87.9863	 +24.5377	 +22.7719	 +0.0003750	 -0.0045587	 -54.9401	 +1.4769	 +0.0000	 +412.6977	 9990144	 13828	 335547859	 0
0	 132	 0	 116	 0	 1195000	 4912469	 +2.56203	 -5.90587	 -7.56998	 -0.3364	 +0.0630	 +0.0773	 -0.14888	 +0.68106	 -1.86903	 +42.90588	 -88.0151	 +24.5597	 +22.7899	 +0.0003761	 -0.0045627	 -55.0540	 +1.4768	 +0.0000	 +412.6977	 9990144	 13828	 335547859	 0
0	 133	 0	 116	 0	 1195000	 4917469	 +2.55769	 -5.89072	 -7.54420	 -0.3940	 +0.1607	 +0.0089	 -0.14913	 +0.68103	 -1.86946	 +42.81176	 -88.0438	 +24.5816	 +22.8081	 +0.0003772	 -0.0045667	 -55.1680	 +1.4766	 +0.0000	 +412.6977	 9990144	 13828	 335547859	 0
0	 134	 0	 116	 0	 1195000	 4922469	 +2.57406	 -5.91812	 -7.58765	 -0.3491	 +0.1267	 +0.0437	 -0.14938	 +0.68100	 -1.86989	 +42.90588	 -88.0726	 +24.6036	 +22.8261	 +0.0003783	 -0.0045707	 -55.2820	 +1.4765	 +0.0000	 +412.6977	 9990144	 13828	 335547859	 0
0	 135	 0	 116	 0	 1195000	 4927469	 +2.55119	 -5.92874	 -7.55656	 -0.3094	 +0.0662	 +0.0011	 -0.14962	 +0.68097	 -1.87032	 +43.00000	 -88.1015	 +24.6256	 +22.8443	 +0.0003794	 -0.0045747	 -55.3962	 +1.4763	 +0.0000	 +412.6977	 9990144	 13828	 335547859	 0
0	 136	 0	 116	 0	 1195000	 4932469	 +2.56834	 -5.92398	 -7.57112	 -0.4223	 +0.1715	 +0.0668	 -0.14986	 +0.68095	 -1.87075	 +42.90588	 -88.1304	 +24.6476	 +22.8623	 +0.0003805	 -0.0045786	 -55.5105	 +1.4762	 +0.0000	 +412.6977	 9990144	 13828	 335547859	 0
0	 137	 0	 116	 0	 1195000	 4937469	 +2.53242	 -5.94606	 -7.59629	 -0.3895	 +0.1026	 -0.0428	 -0.15011	 +0.68092	 -1.87118	 +42.90588	 -88.1593	 +24.6699	 +22.8804	 +0.0003816	 -0.0045826	 -55.6248	 +1.4760	 +0.0000	 +412.6977	 9990144	 13828	 335547859	 0
0	 138	 0	 116	 0	 1195000	 4942469	 +2.53678	 -5.91508	 -7.53122	 -0.3910	 +0.1270	 -0.0078	 -0.15036	 +0.68089	 -1.87162	 +42.81176	 -88.1881	 +24.6919	 +22.8988	 +0.0003827	 -0.0045866	 -55.7393	 +1.4759	 +0.0000	 +412.6977	 9990144	 13828	 335547859	 0
0	 139	 0	 116	 0	 1195000	 4947469	 +2.52641	 -5.90660	 -7.60427	 -0.3476	 +0.1101	 -0.0415	 -0.15061	 +0.68086	 -1.87206	 +42.90588	 -88.2169	 +24.7141	 +22.9168	 +0.0003838	 -0.0045906	 -55.8538	 +1.5655	 +0.0000	 +412.6977	 9990144	 13828	 335547859	 0
0	 140	 0	 116	 0	 1195000	 4952469	 +2.56210	 -5.91440	 -7.56851	 -0.4685	 +0.1000	 +0.0410	 -0.15086	 +0.68083	 -1.87248	 +42.90588	 -88.2457	 +24.7362	 +22.9350	 +0.0003849	 -0.0045946	 -55.9685	 +1.5653	 +0.0000	 +412.6977	 9990144	 13828	 335547859	 0
0	 141	 0	 116	 0	 1195000	 4957469	 +2.54321	 -5.89847	 -7.57769	 -0.3646	 +0.0648	 +0.1170	 -0.15110	 +0.68080	 -1.87290	 +42.90588	 -88.2744	 +24.7583	 +22.9531	 +0.0003861	 -0.0045986	 -56.0832	 +1.5652	 +0.0000	 +412.6977	 9990144	 13828	 335547859	 0
0	 142	 0	 116	 0	 1195000	 4962469	 +2.54572	 -5.92547	 -7.60339	 -0.3885	 +0.1663	 +0.0011	 -0.15135	 +0.68077	 -1.87334	 +42.90588	 -88.3033	 +24.7805	 +22.9712	 +0.0003872	 -0.0046026	 -56.1980	 +1.5650	 +0.0000	 +412.6977	 9990144	 13828	 335547859	 0
0	 143	 0	 116	 0	 1195000	 4967469	 +2.53524	 -5.93037	 -7.58198	 -0.3768	 +0.0876	 +0.0927	 -0.15159	 +0.68074	 -1.87376	 +42.90588	 -88.3322	 +24.8028	 +22.9893	 +0.0003883	 -0.0046066	 -56.3129	 +1.5648	 +0.0000	 +413.2147	 9990144	 13828	 335547859	 0
0	 144	 0	 116	 0	 1195000	 4972469	 +2.49902	 -5.89485	 -7.59692	 -0.3587	 +0.1800	 -0.0203	 -0.15184	 +0.68071	 -1.87419	 +43.00000	 -88.3608	 +24.8252	 +23.0076	 +0.0003894	 -0.0046106	 -56.4279	 +1.5647	 +0.0000	 +413.2147	 9990144	 13828	 335547859	 0
0	 145	 0	 116	 0	 1195000	 4977469	 +2.58215	 -5.89962	 -7.56060	 -0.3668	 +0.1626	 -0.0490	 -0.15209	 +0.68069	 -1.87463	 +42.90588	 -88.3896	 +24.8471	 +23.0257	 +0.0003905	 -0.0046146	 -56.5430	 +1.5645	 +0.0000	 +413.2147	 9990144	 13828	 335547859	 0
0	 146	 0	 116	 0	 1195000	 4982469	 +2.54753	 -5.88706	 -7.55242	 -0.3451	 +0.0881	 -0.0504	 -0.15234	 +0.68066	 -1.87507	 +42.90588	 -88.4183	 +24.8692	 +23.0439	 +0.0003916	 -0.0046186	 -56.6581	 +1.5644	 +0.0000	 +413.2147	 9990144	 13828	 335547859	 0
0	 147	 0	 116	 0	 1195000	 4987469	 +2.54765	 -5.90975	 -7.57468	 -0.3401	 +0.1361	 -0.0202	 -0.15258	 +0.68063	 -1.87551	 +42.90588	 -88.4471	 +24.8914	 +23.0621	 +0.0003927	 -0.0046226	 -56.7734	 +1.3470	 +0.0000	 +413.2147	 9990144	 13828	 335547859	 0
0	 148	 0	 116	 0	 1195000	 4992469	 +2.52406	 -5.90569	 -7.58329	 -0.3334	 +0.1029	 +0.0407	 -0.15282	 +0.68060	 -1.87593	 +43.00000	 -88.4758	 +24.9137	 +23.0803	 +0.0003939	 -0.0046266	 -56.8888	 +1.3468	 +0.0000	 +413.2147	 9990144	 13828	 335547859	 0
0	 149	 0	 116	 0	 1195000	 4997469	 +2.53665	 -5.92310	 -7.59275	 -0.2161	 +0.0710	 -0.0174	 -0.15306	 +0.68056	 -1.87637	 +42.90588	 -88.5046	 +24.9360	 +23.0985	 +0.0003950	 -0.0046306	 -57.0042	 +1.3466	 +0.0000	 +413.2147	 9990144	 13828	 335547859	 0
0	 150	 0	 116	 0	 1195000	 5002469	 +2.51499	 -5.92002	 -7.59427	 -0.3414	 +0.1685	 -0.0491	 -0.15330	 +0.68054	 -1.87681	 +42.81176	 -88.5334	 +24.9584	 +23.1167	 +0.0003961	 -0.0046346	 -57.1197	 +1.3465	 +0.0000	 +413.2147	 9990144	 13828	 335547859	 0
0	 151	 0	 116	 0	 1195000	 5007469	 +2.53040	 -5.89993	 -7.54459	 -0.4352	 +0.2199	 -0.0474	 -0.15356	 +0.68051	 -1.87725	 +42.85882	 -88.5621	 +24.9805	 +23.1351	 +0.0003972	 -0.0046386	 -57.2354	 +1.3463	 +0.0000	 +413.2147	 9990144	 13828	 335547859	 0
0	 152	 0	 116	 0	 1195000	 5012469	 +2.54867	 -5.93222	 -7.58163	 -0.3071	 +0.0992	 +0.0088	 -0.15380	 +0.68048	 -1.87768	 +42.85882	 -88.5910	 +25.0028	 +23.1533	 +0.0003983	 -0.0046426	 -57.3511	 +1.3462	 +0.0000	 +413.2147	 9990144	 13828	 335547859	 0
0	 153	 0	 116	 0	 1195000	 5017469	 +2.53934	 -5.90801	 -7.60491	 -0.3333	 +0.1107	 +0.0179	 -0.15404	 +0.68045	 -1.87811	 +42.95294	 -88.6198	 +25.0251	 +23.1714	 +0.0003995	 -0.0046466	 -57.4669	 +1.3460	 +0.0000	 +413.2147	 9990144	 13828	 335547859	 0
0	 154	 0	 116	 0	 1195000	 5022469	 +2.53840	 -5.89706	 -7.58242	 -0.4107	 +0.1865	 +0.0408	 -0.15429	 +0.68043	 -1.87854	 +42.85882	 -88.6485	 +25.0474	 +23.1896	 +0.0004006	 -0.0046506	 -57.5828	 +1.3459	 +0.0000	 +413.2147	 9990144	 13828	 335547859	 0
0	 155	 0	 116	 0	 1195000	 5027469	 +2.52389	 -5.89678	 -7.60449	 -0.2995	 +0.0671	 -0.0109	 -0.15453	 +0.68039	 -1.87897	 +42.76471	 -88.6772	 +25.0698	 +23.2078	 +0.0004017	 -0.0046546	 -57.6988	 +1.3457	 +0.0000	 +413.2147	 9990144	 13828	 335547859	 0
0	 156	 0	 116	 0	 1195000	 5032469	 +2.53899	 -5.89606	 -7.55367	 -0.3048	 +0.1337	 +0.0269	 -0.15477	 +0.68036	 -1.87940	 +42.95294	 -88.7059	 +25.0920	 +23.2262	 +0.0004028	 -0.0046586	 -57.8149	 +1.3456	 +0.0000	 +413.2147	 9990144	 13828	 335547859	 0
0	 157	 0	 116	 0	 1195000	 5037469	 +2.54955	 -5.92043	 -7.57412	 -0.2792	 +0.1505	 +0.0377	 -0.15500	 +0.68034	 -1.87983	 +42.85882	 -88.7347	 +25.1143	 +23.2444	 +0.0004040	 -0.0046626	 -57.9311	 +1.3454	 +0.0000	 +413.2147	 9990144	 13828	 335547859	 0
0	 158	 0	 116	 0	 1195000	 5042469	 +2.52835	 -5.91614	 -7.60867	 -0.3411	 +0.1181	 +0.0270	 -0.15525	 +0.68031	 -1.88026	 +42.95294	 -88.7635	 +25.1367	 +23.2626	 +0.0004051	 -0.0046666	 -58.0473	 +1.3453	 +0.0000	 +413.2147	 9990144	 13828	 335547859	 0
0	 159	 0	 116	 0	 1195000	 5047469	 +2.57877	 -5.95184	 -7.53086	 -0.4017	 +0.1467	 +0.0302	 -0.15549	 +0.68028	 -1.88069	 +42.85882	 -88.7925	 +25.1588	 +23.2809	 +0.0004062	 -0.0046706	 -58.1637	 +1.3451	 +0.0000	 +413.2147	 9990144	 13828	 335547859	 0
0	 160	 0	 116	 0	 1195000	 5052469	 +2.51411	 -5.91243	 -7.55607	 -0.3940	 +0.1211	 -0.0763	 -0.15575	 +0.68025	 -1.88113	 +42.85882	 -88.8213	 +25.1812	 +23.2994	 +0.0004074	 -0.0046747	 -58.2801	 +1.3450	 +0.0000	 +413.2147	 9990144	 13828	 335547859	 0
0	 161	 0	 116	 0	 1195000	 5057469	 +2.55471	 -5.90325	 -7.58076	 -0.3326	 +0.1268	 +0.0120	 -0.15599	 +0.68022	 -1.88156	 +42.85882	 -88.8500	 +25.2035	 +23.3176	 +0.0004085	 -0.0046787	 -58.3967	 +1.3448	 +0.0000	 +413.2147	 9990144	 13828	 335547859	 0
0	 162	 0	 116	 0	 1195000	 5062469	 +2.53481	 -5.92794	 -7.56946	 -0.3985	 +0.0565	 +0.0059	 -0.15624	 +0.68018	 -1.88199	 +42.85882	 -88.8789	 +25.2258	 +23.3359	 +0.0004096	 -0.0046827	 -58.5133	 +1.3447	 +0.0000	 +413.2147	 9990144	 13828	 335547859	 0
0	 163	 0	 116	 0	 1195000	 5067469	 +2.54962	 -5.92690	 -7.58482	 -0.3867	 +0.1116	 -0.0474	 -0.15649	 +0.68015	 -1.88243	 +42.85882	 -88.9077	 +25.2482	 +23.3542	 +0.0004108	 -0.0046867	 -58.6300	 +1.5352	 +0.0000	 +413.2147	 9990144	 13828	 335547859	 0
0	 164	 0	 116	 0	 1195000	 5072487	 +2.55443	 -5.91064	 -7.55892	 -0.3534	 +0.0412	 +0.0088	 -0.15673	 +0.68011	 -1.88286	 +42.95294	 -88.9365	 +25.2704	 +23.3725	 +0.0004119	 -0.0046907	 -58.7469	 +1.5350	 +0.0000	 +413.2147	 9990144	 13828	 335547859	 0
0	 165	 0	 116	 0	 1195000	 5077557	 +2.54184	 -5.90703	 -7.57578	 -0.3559	 +0.1245	 +0.0332	 -0.15697	 +0.68008	 -1.88329	 +42.81176	 -88.9653	 +25.2928	 +23.3908	 +0.0004130	 -0.0046948	 -58.8638	 +1.5349	 +0.0000	 +413.2147	 9990144	 13828	 335547859	 0
0	 166	 0	 116	 0	 1195000	 5082561	 +2.52834	 -5.89897	 -7.58705	 -0.2567	 +0.0588	 -0.0355	 -0.15721	 +0.68004	 -1.88372	 +42.90588	 -88.9940	 +25.3152	 +23.4091	 +0.0004142	 -0.0046988	 -58.9808	 +1.5347	 +0.0000	 +413.2147	 9990144	 13828	 335547859	 0
0	 167	 0	 116	 0	 1195000	 5087562	 +2.51642	 -5.91062	 -7.56723	 -0.3947	 +0.0820	 -0.0426	 -0.15746	 +0.68001	 -1.88416	 +42.81176	 -89.0227	 +25.3377	 +23.4275	 +0.0004153	 -0.0047028	 -59.0979	 +1.5346	 +0.0000	 +413.2147	 9990144	 13828	 335547859	 0
0	 168	 0	 116	 0	 1195000	 5092531	 +2.55923	 -5.93350	 -7.59490	 -0.2654	 +0.1371	 +0.0131	 -0.15770	 +0.67998	 -1.88459	 +42.85882	 -89.0516	 +25.3601	 +23.4458	 +0.0004164	 -0.0047068	 -59.2150	 +1.5344	 +0.0000	 +413.2147	 9990144	 13828	 335547859	 0
0	 169	 0	 116	 0	 1195000	 5097469	 +2.56534	 -5.89777	 -7.56999	 -0.4213	 +0.1449	 +0.1139	 -0.15100	 +0.67554	 -1.87744	 +42.90588	 -88.8873	 +24.6716	 +22.8670	 +0.0003787	 -0.0046982	 -55.3222	 +1.5343	 +0.0000	 +413.2147	 9990144	 13828	 335547859	 0
0	 170	 0	 116	 0	 1195000	 5102469	 +2.52321	 -5.89712	 -7.53548	 -0.4516	 +0.2214	 +0.0317	 -0.15125	 +0.67552	 -1.87787	 +42.90588	 -88.9160	 +24.6937	 +22.8853	 +0.0003798	 -0.0047022	 -55.4365	 +1.5387	 +0.0000	 +413.2147	 9990144	 13828	 335547859	 0
0	 171	 0	 116	 0	 1195000	 5107469	 +2.53083	 -5.90474	 -7.55999	 -0.2192	 +0.1135	 +0.0923	 -0.15148	 +0.67549	 -1.87829	 +42.90588	 -88.9447	 +24.7158	 +22.9035	 +0.0003809	 -0.0047062	 -55.5510	 +1.3958	 +0.0000	 +413.2147	 9990144	 13828	 335547859	 0
0	 172	 0	 116	 0	 1195000	 5112469	 +2.53218	 -5.91367	 -7.61621	 -0.4236	 +0.1873	 -0.0080	 -0.15173	 +0.67547	 -1.87873	 +42.81176	 -88.9734	 +24.7382	 +22.9215	 +0.0003820	 -0.0047103	 -55.6656	 +1.3956	 +0.0000	 +413.2147	 9990144	 13828	 335547859	 0
0	 173	 0	 116	 0	 1195000	 5117469	 +2.51726	 -5.91201	 -7.61018	 -0.4075	 +0.2037	 -0.0276	 -0.15198	 +0.67545	 -1.87916	 +42.90588	 -89.0021	 +24.7605	 +22.9396	 +0.0003831	 -0.0047143	 -55.7802	 +1.3955	 +0.0000	 +413.2147	 9990144	 13828	 335547859	 0
0	 174	 0	 116	 0	 1195000	 5122469	 +2.55737	 -5.92629	 -7.57372	 -0.4004	 +0.0866	 +0.0591	 -0.15222	 +0.67542	 -1.87959	 +42.90588	 -89.0309	 +24.7826	 +22.9576	 +0.0003843	 -0.0047183	 -55.8950	 +1.3953	 +0.0000	 +413.2147	 9990144	 13828	 335547859	 0
0	 175	 0	 116	 0	 1195000	 5127469	 +2.53610	 -5.91795	 -7.59574	 -0.3623	 +0.0994	 +0.0697	 -0.15246	 +0.67538	 -1.88001	 +43.00000	 -89.0597	 +24.8049	 +22.9757	 +0.0003854	 -0.0047223	 -56.0098	 +1.3952	 +0.0000	 +413.2147	 9990144	 13828	 335547859	 0
0	 176	 0	 116	 0	 1195000	 5132469	 +2.56012	 -5.92490	 -7.60248	 -0.3868	 +0.1679	 +0.0605	 -0.15270	 +0.67536	 -1.88043	 +42.90588	 -89.0885	 +24.8271	 +22.9937	 +0.0003865	 -0.0047264	 -56.1247	 +1.3950	 +0.0000	 +413.2147	 9990144	 13828	 335547859	 0
0	 177	 0	 116	 0	 1195000	 5137469	 +2.57974	 -5.90380	 -7.58715	 -0.3724	 +0.1860	 -0.0461	 -0.15295	 +0.67533	 -1.88087	 +42.90588	 -89.1172	 +24.8492	 +23.0117	 +0.0003876	 -0.0047304	 -56.2397	 +1.3949	 +0.0000	 +413.2147	 9990144	 13828	 335547859	 0
0	 178	 0	 116	 0	 1195000	 5142469	 +2.52711	 -5.93836	 -7.60704	 -0.3372	 +0.0225	 -0.0110	 -0.15319	 +0.67530	 -1.88130	 +42.90588	 -89.1460	 +24.8716	 +23.0298	 +0.0003887	 -0.0047344	 -56.3548	 +1.3947	 +0.0000	 +413.2147	 9990144	 13828	 335547859	 0
0	 179	 0	 116	 0	 1195000	 5147469	 +2.52222	 -5.92809	 -7.59437	 -0.3213	 +0.1385	 -0.0475	 -0.15343	 +0.67527	 -1.88174	 +42.81176	 -89.1748	 +24.8940	 +23.0479	 +0.0003898	 -0.0047385	 -56.4700	 +1.5783	 +0.0000	 +413.2147	 9990144	 13828	 335547859	 0
0	 180	 0	 116	 0	 1195000	 5152469	 +2.52701	 -5.91045	 -7.56807	 -0.3303	 +0.1369	 -0.0308	 -0.15367	 +0.67524	 -1.88217	 +42.81176	 -89.2035	 +24.9162	 +23.0662	 +0.0003910	 -0.0047425	 -56.5853	 +1.5781	 +0.0000	 +413.2147	 9990144	 13828	 335547859	 0
0	 181	 0	 116	 0	 1195000	 5157469	 +2.52739	 -5.88802	 -7.56647	 -0.3988	 +0.1021	 +0.0712	 -0.15391	 +0.67521	 -1.88259	 +42.90588	 -89.2321	 +24.9384	 +23.0844	 +0.0003921	 -0.0047465	 -56.7007	 +1.5780	 +0.0000	 +413.2147	 9990144	 13828	 335547859	 0
0	 182	 0	 116	 0	 1195000	 5162462	 +2.57932	 -5.90863	 -7.56960	 -0.3761	 +0.1958	 +0.0133	 -0.15416	 +0.67518	 -1.88302	 +42.90588	 -89.2609	 +24.9605	 +23.1025	 +0.0003932	 -0.0047506	 -56.8162	 +1.5778	 +0.0000	 +413.2147	 9990144	 13828	 335547859	 0
0	 183	 0	 116	 0	 1195000	 5167469	 +2.55293	 -5.92166	 -7.59105	 -0.3423	 +0.0937	 +0.1214	 -0.15439	 +0.67515	 -1.88344	 +42.90588	 -89.2897	 +24.9828	 +23.1206	 +0.0003943	 -0.0047546	 -56.9317	 +1.5777	 +0.0000	 +413.2147	 9990144	 13828	 335547859	 0
0	 184	 0	 116	 0	 1195000	 5172469	 +2.52014	 -5.89384	 -7.58615	 -0.2839	 +0.1996	 -0.0493	 -0.15463	 +0.67513	 -1.88388	 +42.81176	 -89.3183	 +25.0051	 +23.1388	 +0.0003954	 -0.0047586	 -57.0474	 +1.5775	 +0.0000	 +413.2147	 9990144	 13828	 335547859	 0
0	 185	 0	 116	 0	 1195000	 5177469	 +2.56296	 -5.90970	 -7.58294	 -0.3094	 +0.1184	 -0.0141	 -0.15487	 +0.67510	 -1.88431	 +42.81176	 -89.3470	 +25.0273	 +23.1569	 +0.0003966	 -0.0047627	 -57.1631	 +1.5774	 +0.0000	 +413.2147	 9990144	 13828	 335547859	 0
0	 186	 0	 116	 0	 1195000	 5182469	 +2.54374	 -5.92693	 -7.62395	 -0.3307	 +0.0506	 +0.0103	 -0.15511	 +0.67506	 -1.88474	 +42.90588	 -89.3758	 +25.0498	 +23.1749	 +0.0003977	 -0.0047667	 -57.2789	 +1.5772	 +0.0000	 +413.2147	 9990144	 13828	 335547859	 0
0	 187	 0	 116	 0	 1195000	 5187469	 +2.54751	 -5.91602	 -7.62021	 -0.3107	 +0.0755	 +0.0225	 -0.15534	 +0.67503	 -1.88517	 +42.81176	 -89.4045	 +25.0722	 +23.1929	 +0.0003988	 -0.0047708	 -57.3949	 +1.3768	 +0.0000	 +413.2147	 9990144	 13828	 335547859	 0
0	 188	 0	 116	 0	 1195000	 5192469	 +2.51498	 -5.91383	 -7.58805	 -0.4124	 +0.0885	 -0.0458	 -0.15559	 +0.67499	 -1.88560	 +43.00000	 -89.4332	 +25.0946	 +23.2111	 +0.0003999	 -0.0047748	 -57.5109	 +1.3766	 +0.0000	 +413.2147	 9990144	 13828	 335547859	 0
0	 189	 0	 116	 0	 1195000	 5197469	 +2.51884	 -5.90242	 -7.55656	 -0.3134	 +0.0804	 +0.0195	 -0.15583	 +0.67496	 -1.88603	 +42.90588	 -89.4619	 +25.1169	 +23.2295	 +0.0004011	 -0.0047788	 -57.6270	 +1.3765	 +0.0000	 +413.2147	 9990144	 13828	 335547859	 0
0	 190	 0	 116	 0	 1195000	 5202469	 +2.52955	 -5.92273	 -7.55700	 -0.3348	 +0.0968	 +0.0894	 -0.15606	 +0.67493	 -1.88645	 +42.90588	 -89.4907	 +25.1392	 +23.2478	 +0.0004022	 -0.0047829	 -57.7432	 +1.3763	 +0.0000	 +413.2147	 9990144	 13828	 335547859	 0
0	 191	 0	 116	 0	 1195000	 5207469	 +2.54303	 -5.91644	 -7.53360	 -0.3106	 +0.0939	 +0.0590	 -0.15630	 +0.67489	 -1.88687	 +42.90588	 -89.5194	 +25.1614	 +23.2662	 +0.0004033	 -0.0047869	 -57.8594	 +1.3762	 +0.0000	 +413.2147	 9990144	 13828	 335547859	 0
0	 192	 0	 116	 0	 1195000	 5212469	 +2.56319	 -5.92812	 -7.56318	 -0.3340	 +0.1084	 +0.0817	 -0.15653	 +0.67486	 -1.88729	 +43.00000	 -89.5483	 +25.1837	 +23.2844	 +0.0004045	 -0.0047910	 -57.9758	 +1.3760	 +0.0000	 +413.2147	 9990144	 13828	 335547859	 0
0	 193	 0	 116	 0	 1195000	 5217462	 +2.57267	 -5.92333	 -7.58522	 -0.3012	 +0.1544	 -0.0554	 -0.15677	 +0.67483	 -1.88773	 +42.90588	 -89.5771	 +25.2059	 +23.3025	 +0.0004056	 -0.0047950	 -58.0923	 +1.3759	 +0.0000	 +413.2147	 9990144	 13828	 335547859	 0
0	 194	 0	 116	 0	 1195000	 5222469	 +2.55689	 -5.92346	 -7.56515	 -0.2900	 +0.1228	 +0.0071	 -0.15701	 +0.67480	 -1.88816	 +42.90588	 -89.6059	 +25.2282	 +23.3208	 +0.0004067	 -0.0047991	 -58.2088	 +1.3757	 +0.0000	 +413.2147	 9990144	 13828	 335547859	 0
0	 195	 0	 116	 0	 1195000	 5227469	 +2.55428	 -5.92604	 -7.61035	 -0.4041	 +0.1305	 -0.0047	 -0.15725	 +0.67477	 -1.88859	 +42.81176	 -89.6347	 +25.2506	 +23.3389	 +0.0004079	 -0.0048031	 -58.3255	 +1.2825	 +0.0000	 +413.2147	 9990144	 13828	 335547859	 0
0	 196	 0	 116	 0	 1195000	 5232469	 +2.54798	 -5.89750	 -7.58584	 -0.4226	 +0.1881	 +0.0531	 -0.15750	 +0.67475	 -1.88902	 +42.85882	 -89.6633	 +25.2730	 +23.3571	 +0.0004090	 -0.0048072	 -58.4422	 +1.2824	 +0.0000	 +413.2147	 9990144	 13828	 335547859	 0
0	 197	 0	 116	 0	 1195000	 5237469	 +2.53999	 -5.92453	 -7.59855	 -0.3037	 +0.0522	 -0.0172	 -0.15774	 +0.67471	 -1.88945	 +42.85882	 -89.6921	 +25.2955	 +23.3752	 +0.0004101	 -0.0048113	 -58.5591	 +1.2822	 +0.0000	 +413.2147	 9990144	 13828	 335547859	 0
0	 198	 0	 116	 0	 1195000	 5242469	 +2.53562	 -5.92748	 -7.61344	 -0.2990	 +0.1718	 +0.0010	 -0.15797	 +0.67468	 -1.88988	 +42.85882	 -89.7209	 +25.3180	 +23.3934	 +0.0004113	 -0.0048153	 -58.6760	 +1.2821	 +0.0000	 +413.2147	 9990144	 13828	 335547859	 0
0	 199	 0	 116	 0	 1195000	 5247469	 +2.53359	 -5.89238	 -7.57291	 -0.3208	 +0.1065	 +0.0301	 -0.15821	 +0.67465	 -1.89031	 +42.85882	 -89.7495	 +25.3404	 +23.4117	 +0.0004124	 -0.0048194	 -58.7930	 +1.2819	 +0.0000	 +413.2147	 9990144	 13828	 335547859	 0
0	 200	 0	 116	 0	 1195000	 5252462	 +2.55000	 -5.89785	 -7.56894	 -0.4294	 +0.1400	 -0.0276	 -0.15846	 +0.67462	 -1.89074	 +42.85882	 -89.7782	 +25.3627	 +23.4300	 +0.0004135	 -0.0048234	 -58.9101	 +1.2818	 +0.0000	 +413.2147	 9990144	 13828	 335547859	 0
0	 201	 0	 116	 0	 1195000	 5257469	 +2.55032	 -5.93640	 -7.53658	 -0.3362	 +0.0466	 -0.0170	 -0.15870	 +0.67458	 -1.89117	 +42.85882	 -89.8070	 +25.3850	 +23.4484	 +0.0004147	 -0.0048275	 -59.0273	 +1.2816	 +0.0000	 +413.2147	 9990144	 13828	 335547859	 0
0	 202	 0	 116	 0	 1195000	 5262469	 +2.52661	 -5.91857	 -7.55428	 -0.3526	 +0.1416	 +0.0074	 -0.15894	 +0.67455	 -1.89160	 +42.85882	 -89.8358	 +25.4074	 +23.4668	 +0.0004158	 -0.0048315	 -59.1446	 +1.2815	 +0.0000	 +413.2147	 9990144	 13828	 335547859	 0
0	 203	 0	 116	 0	 1195000	 5267469	 +2.54955	 -5.91403	 -7.58761	 -0.3264	 +0.1653	 +0.0284	 -0.15918	 +0.67453	 -1.89203	 +42.95294	 -89.8645	 +25.4299	 +23.4851	 +0.0004170	 -0.0048356	 -59.2620	 +1.4564	 +0.0000	 +413.2147	 9990144	 13828	 335547859	 0
0	 204	 0	 116	 0	 1195000	 5272475	 +2.52649	 -5.89900	 -7.56511	 -0.2820	 +0.0620	 -0.0126	 -0.15942	 +0.67449	 -1.89246	 +42.85882	 -89.8931	 +25.4523	 +23.5034	 +0.0004181	 -0.0048397	 -59.3794	 +1.4562	 +0.0000	 +413.2147	 9990144	 13828	 335547859	 0
0	 205	 0	 116	 0	 1195000	 5277487	 +2.55636	 -5.92871	 -7.58716	 -0.2978	 +0.2068	 -0.0098	 -0.15965	 +0.67446	 -1.89289	 +42.95294	 -89.9220	 +25.4748	 +23.5217	 +0.0004192	 -0.0048437	 -59.4970	 +1.4561	 +0.0000	 +413.2147	 9990144	 13828	 335547859	 0
0	 206	 0	 116	 0	 1195000	 5282562	 +2.54093	 -5.89747	 -7.54985	 -0.3410	 +0.1028	 +0.0408	 -0.15989	 +0.67443	 -1.89332	 +43.00000	 -89.9506	 +25.4971	 +23.5401	 +0.0004204	 -0.0048478	 -59.6147	 +1.4559	 +0.0000	 +413.2147	 9990144	 13828	 335547859	 0
0	 207	 0	 116	 0	 1195000	 5287563	 +2.53980	 -5.88078	 -7.57839	 -0.3615	 +0.1723	 +0.0421	 -0.16013	 +0.67440	 -1.89375	 +42.90588	 -89.9792	 +25.5196	 +23.5584	 +0.0004215	 -0.0048519	 -59.7324	 +1.4558	 +0.0000	 +413.8180	 9990144	 13828	 335547859	 0
0	 208	 0	 116	 0	 1195000	 5292535	 +2.53092	 -5.91328	 -7.55042	 -0.2966	 +0.1159	 +0.0499	 -0.16036	 +0.67437	 -1.89417	 +42.85882	 -90.0079	 +25.5420	 +23.5768	 +0.0004227	 -0.0048559	 -59.8502	 +1.4556	 +0.0000	 +413.8180	 9990144	 13828	 335547859	 0
0	 209	 0	 116	 0	 1195000	 5297469	 +2.54711	 -5.92511	 -7.60598	 -0.2997	 +0.1648	 +0.0726	 -0.15360	 +0.66989	 -1.88705	 +42.76471	 -89.8430	 +24.8488	 +22.9920	 +0.0003846	 -0.0048472	 -55.9169	 +1.4555	 +0.0000	 +413.8180	 9990144	 13828	 335547859	 0
0	 210	 0	 116	 0	 1195000	 5302469	 +2.52994	 -5.92565	 -7.58053	 -0.3740	 +0.1442	 +0.0758	 -0.15384	 +0.66986	 -1.88747	 +42.85882	 -89.8717	 +24.8711	 +23.0101	 +0.0003857	 -0.0048512	 -56.0319	 +1.4596	 +0.0000	 +413.8180	 9990144	 13828	 335547859	 0
0	 211	 0	 116	 0	 1195000	 5307469	 +2.53044	 -5.90654	 -7.54978	 -0.3576	 +0.0552	 +0.0560	 -0.15407	 +0.66983	 -1.88789	 +42.95294	 -89.9004	 +24.8933	 +23.0284	 +0.0003868	 -0.0048553	 -56.1470	 +1.2843	 +0.0000	 +413.8180	 9990144	 13828	 335547859	 0
0	 212	 0	 116	 0	 1195000	 5312469	 +2.54247	 -5.92596	 -7.57375	 -0.4247	 +0.1586	 -0.0033	 -0.15432	 +0.66980	 -1.88832	 +42.85882	 -89.9291	 +24.9155	 +23.0465	 +0.0003879	 -0.0048594	 -56.2622	 +1.2842	 +0.0000	 +413.8180	 9990144	 13828	 335547859	 0
0	 213	 0	 116	 0	 1195000	 5317469	 +2.53302	 -5.87709	 -7.57944	 -0.4277	 +0.1784	 -0.0003	 -0.15456	 +0.66978	 -1.88875	 +42.85882	 -89.9576	 +24.9378	 +23.0646	 +0.0003891	 -0.0048634	 -56.3775	 +1.2840	 +0.0000	 +413.8180	 9990144	 13828	 335547859	 0
0	 214	 0	 116	 0	 1195000	 5322469	 +2.52746	 -5.90611	 -7.57370	 -0.3338	 +0.0996	 -0.0323	 -0.15480	 +0.66974	 -1.88918	 +42.95294	 -89.9862	 +24.9601	 +23.0828	 +0.0003902	 -0.0048675	 -56.4928	 +1.2839	 +0.0000	 +413.8180	 9990144	 13828	 335547859	 0
0	 215	 0	 116	 0	 1195000	 5327469	 +2.54655	 -5.88550	 -7.57511	 -0.3581	 +0.1007	 +0.0453	 -0.15504	 +0.66971	 -1.88960	 +42.95294	 -90.0148	 +24.9823	 +23.1009	 +0.0003913	 -0.0048716	 -56.6083	 +1.2837	 +0.0000	 +413.8180	 9990144	 13828	 335547859	 0
0	 216	 0	 116	 0	 1195000	 5332469	 +2.56642	 -5.93153	 -7.59393	 -0.3503	 +0.0781	 +0.0012	 -0.15528	 +0.66968	 -1.89003	 +42.95294	 -90.0436	 +25.0046	 +23.1189	 +0.0003924	 -0.0048757	 -56.7238	 +1.2836	 +0.0000	 +413.8180	 9990144	 13828	 335547859	 0
0	 217	 0	 116	 0	 1195000	 5337469	 +2.55257	 -5.93874	 -7.58862	 -0.3866	 +0.0931	 +0.0347	 -0.15552	 +0.66964	 -1.89045	 +42.85882	 -90.0724	 +25.0269	 +23.1370	 +0.0003936	 -0.0048797	 -56.8395	 +1.2834	 +0.0000	 +413.8180	 9990144	 13828	 335547859	 0
0	 218	 0	 116	 0	 1195000	 5342469	 +2.56172	 -5.91959	 -7.55364	 -0.4081	 +0.1507	 +0.0757	 -0.15575	 +0.66962	 -1.89088	 +42.85882	 -90.1011	 +25.0490	 +23.1551	 +0.0003947	 -0.0048838	 -56.9552	 +1.2833	 +0.0000	 +413.8180	 9990144	 13828	 335547859	 0
0	 219	 0	 116	 0	 1195000	 5347469	 +2.54132	 -5.88457	 -7.56074	 -0.3084	 +0.1286	 -0.0142	 -0.15599	 +0.66959	 -1.89131	 +42.90588	 -90.1296	 +25.0712	 +23.1733	 +0.0003958	 -0.0048879	 -57.0710	 +1.4736	 +0.0000	 +413.8180	 9990144	 13828	 335547859	 0
0	 220	 0	 116	 0	 1195000	 5352469	 +2.55539	 -5.90536	 -7.55597	 -0.3690	 +0.0989	 -0.0004	 -0.15623	 +0.66955	 -1.89173	 +42.90588	 -90.1583	 +25.0934	 +23.1915	 +0.0003969	 -0.0048920	 -57.1869	 +1.4735	 +0.0000	 +413.8180	 9990144	 13828	 335547859	 0
0	 221	 0	 116	 0	 1195000	 5357469	 +2.55774	 -5.91249	 -7.57990	 -0.4159	 +0.1245	 +0.0332	 -0.15647	 +0.66952	 -1.89216	 +42.90588	 -90.1870	 +25.1157	 +23.2096	 +0.0003981	 -0.0048960	 -57.3030	 +1.4733	 +0.0000	 +413.8180	 9990144	 13828	 335547859	 0
0	 222	 0	 116	 0	 1195000	 5362469	 +2.53710	 -5.89225	 -7.53883	 -0.3699	 +0.1791	 +0.0468	 -0.15671	 +0.66950	 -1.89258	 +42.81176	 -90.2156	 +25.1379	 +23.2279	 +0.0003992	 -0.0049001	 -57.4190	 +1.4732	 +0.0000	 +413.8180	 9990144	 13828	 335547859	 0
0	 223	 0	 116	 0	 1195000	 5367469	 +2.54532	 -5.89982	 -7.53316	 -0.3185	 +0.2148	 +0.0041	 -0.15695	 +0.66947	 -1.89301	 +42.81176	 -90.2442	 +25.1601	 +23.2463	 +0.0004003	 -0.0049042	 -57.5352	 +1.4731	 +0.0000	 +413.4731	 9990144	 13828	 335547859	 0
0	 224	 0	 116	 0	 1195000	 5372469	 +2.55933	 -5.91580	 -7.54311	 -0.2282	 +0.1200	 -0.0296	 -0.15718	 +0.66944	 -1.89345	 +42.90588	 -90.2729	 +25.1822	 +23.2645	 +0.0004015	 -0.0049083	 -57.6515	 +1.4729	 +0.0000	 +413.4731	 9990144	 13828	 335547859	 0
0	 225	 0	 116	 0	 1195000	 5377469	 +2.54295	 -5.93976	 -7.59720	 -0.3929	 +0.1374	 -0.0216	 -0.15742	 +0.66941	 -1.89388	 +42.81176	 -90.3017	 +25.2047	 +23.2826	 +0.0004026	 -0.0049124	 -57.7679	 +1.4728	 +0.0000	 +413.4731	 9990144	 13828	 335547859	 0
0	 226	 0	 116	 0	 1195000	 5382469	 +2.51252	 -5.90103	 -7.57850	 -0.2427	 +0.1741	 +0.0100	 -0.15765	 +0.66938	 -1.89431	 +42.81176	 -90.3302	 +25.2272	 +23.3009	 +0.0004037	 -0.0049164	 -57.8843	 +1.4726	 +0.0000	 +413.4731	 9990144	 13828	 335547859	 0
0	 227	 0	 116	 0	 1195000	 5387469	 +2.55669	 -5.91263	 -7.59445	 -0.4167	 +0.1330	 +0.0044	 -0.15789	 +0.66935	 -1.89473	 +42.90588	 -90.3589	 +25.2495	 +23.3190	 +0.0004048	 -0.0049205	 -58.0009	 +1.4725	 +0.0000	 +413.4731	 9990144	 13828	 335547859	 0
0	 228	 0	 116	 0	 1195000	 5392469	 +2.55565	 -5.96156	 -7.56958	 -0.3395	 +0.1596	 +0.0240	 -0.15813	 +0.66933	 -1.89516	 +42.90588	 -90.3878	 +25.2719	 +23.3372	 +0.0004060	 -0.0049246	 -58.1175	 +1.4723	 +0.0000	 +413.4731	 9990144	 13828	 335547859	 0
0	 229	 0	 116	 0	 1195000	 5397469	 +2.52787	 -5.90046	 -7.58095	 -0.3014	 +0.1890	 +0.1258	 -0.15836	 +0.66930	 -1.89558	 +42.81176	 -90.4164	 +25.2943	 +23.3554	 +0.0004071	 -0.0049287	 -58.2343	 +1.4722	 +0.0000	 +413.4731	 9990144	 13828	 335547859	 0
0	 230	 0	 116	 0	 1195000	 5402462	 +2.50879	 -5.91520	 -7.58548	 -0.3402	 +0.0548	 -0.0232	 -0.15859	 +0.66926	 -1.89601	 +42.90588	 -90.4451	 +25.3169	 +23.3737	 +0.0004083	 -0.0049328	 -58.3511	 +1.4720	 +0.0000	 +413.4731	 9990144	 13828	 335547859	 0
0	 231	 0	 116	 0	 1195000	 5407469	 +2.57377	 -5.87728	 -7.59246	 -0.3415	 +0.1774	 +0.0223	 -0.15883	 +0.66924	 -1.89643	 +42.90588	 -90.4736	 +25.3392	 +23.3918	 +0.0004094	 -0.0049369	 -58.4680	 +1.4719	 +0.0000	 +413.4731	 9990144	 13828	 335547859	 0
0	 232	 0	 116	 0	 1195000	 5412469	 +2.53931	 -5.89564	 -7.59199	 -0.3605	 +0.1151	 +0.0651	 -0.15906	 +0.66921	 -1.89685	 +42.90588	 -90.5022	 +25.3616	 +23.4099	 +0.0004105	 -0.0049410	 -58.5850	 +1.4717	 +0.0000	 +413.4731	 9990144	 13828	 335547859	 0
0	 233	 0	 116	 0	 1195000	 5417469	 +2.56237	 -5.90649	 -7.59697	 -0.3251	 +0.1128	 +0.0789	 -0.15930	 +0.66917	 -1.89727	 +42.90588	 -90.5308	 +25.3841	 +23.4280	 +0.0004117	 -0.0049451	 -58.7021	 +1.4716	 +0.0000	 +413.4731	 9990144	 13828	 335547859	 0
0	 234	 0	 116	 0	 1195000	 5422469	 +2.51842	 -5.91664	 -7.57132	 -0.4004	 +0.1895	 -0.0216	 -0.15954	 +0.66915	 -1.89771	 +42.81176	 -90.5595	 +25.4066	 +23.4464	 +0.0004128	 -0.0049492	 -58.8193	 +1.4715	 +0.0000	 +413.4731	 9990144	 13828	 335547859	 0
0	 235	 0	 116	 0	 1195000	 5427469	 +2.57354	 -5.92014	 -7.58832	 -0.4209	 +0.0872	 +0.0258	 -0.15978	 +0.66911	 -1.89813	 +42.81176	 -90.5882	 +25.4289	 +23.4645	 +0.0004140	 -0.0049532	 -58.9366	 +1.3742	 +0.0000	 +413.4731	 9990144	 13828	 335547859	 0
0	 236	 0	 116	 0	 1195000	 5432462	 +2.56646	 -5.91726	 -7.55712	 -0.3171	 +0.2085	 -0.0021	 -0.16002	 +0.66909	 -1.89856	 +42.90588	 -90.6169	 +25.4512	 +23.4827	 +0.0004151	 -0.0049573	 -59.0539	 +1.3741	 +0.0000	 +413.4731	 9990144	 13828	 335547859	 0
0	 237	 0	 116	 0	 1195000	 5437469	 +2.56358	 -5.90629	 -7.54459	 -0.2553	 +0.1643	 -0.0220	 -0.16025	 +0.66906	 -1.89899	 +42.90588	 -90.6456	 +25.4735	 +23.5010	 +0.0004162	 -0.0049614	 -59.1714	 +1.3740	 +0.0000	 +413.4731	 9990144	 13828	 335547859	 0
0	 238	 0	 116	 0	 1195000	 5442469	 +2.53526	 -5.90418	 -7.53078	 -0.3412	 +0.1582	 -0.0886	 -0.16049	 +0.66903	 -1.89943	 +42.90588	 -90.6742	 +25.4959	 +23.5195	 +0.0004174	 -0.0049655	 -59.2889	 +1.3738	 +0.0000	 +413.4731	 9990144	 13828	 335547859	 0
0	 239	 0	 116	 0	 1195000	 5447469	 +2.55031	 -5.87695	 -7.57803	 -0.3415	 +0.1285	 +0.0117	 -0.16073	 +0.66900	 -1.89986	 +43.00000	 -90.7027	 +25.5183	 +23.5377	 +0.0004185	 -0.0049696	 -59.4066	 +1.3737	 +0.0000	 +414.0765	 9990144	 13828	 335547859	 0
0	 240	 0	 116	 0	 1195000	 5452469	 +2.55275	 -5.90172	 -7.60396	 -0.3486	 +0.0661	 -0.0124	 -0.16097	 +0.66896	 -1.90029	 +42.90588	 -90.7313	 +25.5408	 +23.5558	 +0.0004197	 -0.0049737	 -59.5243	 +1.3735	 +0.0000	 +414.0765	 9990144	 13828	 335547859	 0
0	 241	 0	 116	 0	 1195000	 5457469	 +2.52977	 -5.89710	 -7.58283	 -0.4274	 +0.1128	 +0.0151	 -0.16121	 +0.66893	 -1.90071	 +42.90588	 -90.7599	 +25.5633	 +23.5741	 +0.0004208	 -0.0049778	 -59.6421	 +1.3734	 +0.0000	 +414.0765	 9990144	 13828	 335547859	 0
0	 242	 0	 116	 0	 1195000	 5462469	 +2.53083	 -5.90466	 -7.57036	 -0.3486	 +0.1592	 +0.1381	 -0.16144	 +0.66890	 -1.90113	 +42.95294	 -90.7885	 +25.5859	 +23.5925	 +0.0004220	 -0.0049820	 -59.7601	 +1.3732	 +0.0000	 +414.0765	 9990144	 13828	 335547859	 0
0	 243	 0	 116	 0	 1195000	 5467469	 +2.55796	 -5.94772	 -7.57429	 -0.3852	 +0.1375	 +0.0088	 -0.16168	 +0.66887	 -1.90155	 +42.85882	 -90.8173	 +25.6084	 +23.6108	 +0.0004231	 -0.0049861	 -59.8781	 +1.4701	 +0.0000	 +414.0765	 9990144	 13828	 335547859	 0
0	 244	 0	 116	 0	 1195000	 5472487	 +2.51870	 -5.89385	 -7.58470	 -0.3731	 +0.1500	 -0.0186	 -0.16192	 +0.66884	 -1.90198	 +42.90588	 -90.8459	 +25.6310	 +23.6291	 +0.0004243	 -0.0049902	 -59.9962	 +1.4700	 +0.0000	 +414.0765	 9990144	 13828	 335547859	 0
0	 245	 0	 116	 0	 1195000	 5477523	 +2.55647	 -5.88647	 -7.61302	 -0.4036	 +0.1985	 -0.0110	 -0.16217	 +0.66881	 -1.90242	 +42.90588	 -90.8744	 +25.6535	 +23.6472	 +0.0004254	 -0.0049943	 -60.1143	 +1.4698	 +0.0000	 +414.0765	 9990144	 13828	 335547859	 0
0	 246	 0	 116	 0	 1195000	 5482566	 +2.58032	 -5.93152	 -7.59031	 -0.3952	 +0.1319	 -0.0017	 -0.16241	 +0.66878	 -1.90284	 +42.90588	 -90.9032	 +25.6760	 +23.6653	 +0.0004266	 -0.0049984	 -60.2326	 +1.4697	 +0.0000	 +414.0765	 9990144	 13828	 335547859	 0
0	 247	 0	 116	 0	 1195000	 5487582	 +2.56505	 -5.92308	 -7.54679	 -0.2614	 +0.1043	 +0.0544	 -0.16264	 +0.66874	 -1.90327	 +42.81176	 -90.9319	 +25.6984	 +23.6837	 +0.0004277	 -0.0050025	 -60.3510	 +1.4695	 +0.0000	 +414.0765	 9990144	 13828	 335547859	 0
0	 248	 0	 116	 0	 1195000	 5492538	 +2.52623	 -5.94037	 -7.57139	 -0.3256	 +0.0618	 +0.0302	 -0.16287	 +0.66871	 -1.90369	 +42.81176	 -90.9607	 +25.7210	 +23.7021	 +0.0004289	 -0.0050066	 -60.4695	 +1.4694	 +0.0000	 +414.0765	 9990144	 13828	 335547859	 0
0	 249	 0	 116	 0	 1195000	 5497469	 +2.52368	 -5.89524	 -7.53265	 -0.3091	 +0.1019	 -0.0399	 -0.15605	 +0.66417	 -1.89659	 +42.85882	 -90.7952	 +25.0228	 +23.1118	 +0.0003905	 -0.0049977	 -56.4968	 +1.4693	 +0.0000	 +414.0765	 9990144	 13828	 335547859	 0
0	 250	 0	 116	 0	 1195000	 5502462	 +2.56206	 -5.93250	 -7.60966	 -0.2929	 +0.1304	 +0.0558	 -0.15628	 +0.66414	 -1.89702	 +42.85882	 -90.8239	 +25.0451	 +23.1297	 +0.0003916	 -0.0050018	 -56.6124	 +1.4741	 +0.0000	 +414.0765	 9990144	 13828	 335547859	 0
0	 251	 0	 116	 0	 1195000	 5507469	 +2.51562	 -5.92529	 -7.55520	 -0.2463	 +0.0538	 +0.0696	 -0.15650	 +0.66411	 -1.89743	 +42.76471	 -90.8525	 +25.0675	 +23.1480	 +0.0003927	 -0.0050059	 -56.7281	 +1.4740	 +0.0000	 +414.0765	 9990144	 13828	 335547859	 0
0	 252	 0	 116	 0	 1195000	 5512469	 +2.54182	 -5.89839	 -7.57274	 -0.4020	 +0.1234	 +0.0043	 -0.15674	 +0.66408	 -1.89786	 +42.85882	 -90.8810	 +25.0898	 +23.1661	 +0.0003938	 -0.0050100	 -56.8439	 +1.4738	 +0.0000	 +414.0765	 9990144	 13828	 335547859	 0
0	 253	 0	 116	 0	 1195000	 5517469	 +2.54004	 -5.91173	 -7.55655	 -0.3214	 +0.1167	 +0.0179	 -0.15697	 +0.66405	 -1.89828	 +42.85882	 -90.9096	 +25.1121	 +23.1843	 +0.0003950	 -0.0050142	 -56.9597	 +1.4737	 +0.0000	 +414.0765	 9990144	 13828	 335547859	 0
0	 254	 0	 116	 0	 1195000	 5522469	 +2.55779	 -5.91964	 -7.57803	 -0.3356	 +0.1207	 -0.0126	 -0.15721	 +0.66401	 -1.89871	 +42.85882	 -90.9383	 +25.1344	 +23.2024	 +0.0003961	 -0.0050183	 -57.0757	 +1.4736	 +0.0000	 +414.0765	 9990144	 13828	 335547859	 0
0	 255	 0	 116	 0	 1195000	 5527469	 +2.56000	 -5.89882	 -7.58345	 -0.3304	 +0.0878	 -0.0429	 -0.15744	 +0.66398	 -1.89914	 +42.85882	 -90.9669	 +25.1566	 +23.2204	 +0.0003972	 -0.0050224	 -57.1918	 +1.4734	 +0.0000	 +412.9562	 9990144	 13828	 335547859	 0
0	 0	 0	 116	 0	 1195000	 5532469	 +2.54690	 -5.93114	 -7.55128	 -0.4349	 +0.0484	 +0.0349	 -0.15768	 +0.66394	 -1.89956	 +42.95294	 -90.9956	 +25.1789	 +23.2386	 +0.0003983	 -0.0050265	 -57.3079	 +1.4733	 +0.0000	 +412.9562	 9990144	 13828	 335547859	 0
0	 1	 0	 116	 0	 1195000	 5537469	 +2.53090	 -5.92277	 -7.57762	 -0.3984	 +0.1224	 +0.0394	 -0.15792	 +0.66391	 -1.89999	 +42.85882	 -91.0242	 +25.2013	 +23.2568	 +0.0003995	 -0.0050306	 -57.4241	 +1.4731	 +0.0000	 +412.9562	 9990144	 13828	 335547859	 0
0	 2	 0	 116	 0	 1195000	 5542469	 +2.54063	 -5.87706	 -7.59957	 -0.3003	 +0.1122	 +0.0543	 -0.15815	 +0.66388	 -1.90041	 +42.85882	 -91.0526	 +25.2238	 +23.2748	 +0.0004006	 -0.0050347	 -57.5405	 +1.4730	 +0.0000	 +412.9562	 9990144	 13828	 335547859	 0
0	 3	 0	 116	 0	 1195000	 5547469	 +2.53384	 -5.92463	 -7.56328	 -0.4198	 +0.1360	 -0.0123	 -0.15839	 +0.66385	 -1.90084	 +42.85882	 -91.0813	 +25.2461	 +23.2931	 +0.0004017	 -0.0050388	 -57.6569	 +1.5500	 +0.0000	 +412.9562	 9990144	 13828	 335547859	 0
0	 4	 0	 116	 0	 1195000	 5552469	 +2.55828	 -5.90778	 -7.54987	 -0.3460	 +0.1729	 -0.0157	 -0.15863	 +0.66382	 -1.90126	 +42.85882	 -91.1099	 +25.2684	 +23.3113	 +0.0004029	 -0.0050430	 -57.7734	 +1.5498	 +0.0000	 +412.9562	 9990144	 13828	 335547859	 0
0	 5	 0	 116	 0	 1195000	 5557469	 +2.54517	 -5.91985	 -7.60541	 -0.3151	 +0.1139	 +0.0270	 -0.15886	 +0.66379	 -1.90169	 +42.85882	 -91.1385	 +25.2909	 +23.3293	 +0.0004040	 -0.0050471	 -57.8900	 +1.5497	 +0.0000	 +412.9562	 9990144	 13828	 335547859	 0
0	 6	 0	 116	 0	 1195000	 5562469	 +2.53321	 -5.92663	 -7.60306	 -0.3059	 +0.1525	 +0.0194	 -0.15909	 +0.66376	 -1.90211	 +42.85882	 -91.1671	 +25.3134	 +23.3474	 +0.0004052	 -0.0050512	 -58.0067	 +1.5495	 +0.0000	 +412.9562	 9990144	 13828	 335547859	 0
0	 7	 0	 116	 0	 1195000	 5567469	 +2.55282	 -5.90933	 -7.59491	 -0.2819	 +0.1065	 +0.0163	 -0.15931	 +0.66373	 -1.90254	 +42.95294	 -91.1957	 +25.3358	 +23.3655	 +0.0004063	 -0.0050553	 -58.1235	 +1.5494	 +0.0000	 +412.9562	 9990144	 13828	 335547859	 0
0	 8	 0	 116	 0	 1195000	 5572469	 +2.54334	 -5.92892	 -7.59449	 -0.4392	 +0.1637	 -0.0229	 -0.15956	 +0.66370	 -1.90297	 +42.85882	 -91.2244	 +25.3583	 +23.3836	 +0.0004074	 -0.0050595	 -58.2404	 +1.5493	 +0.0000	 +412.9562	 9990144	 13828	 335547859	 0
0	 9	 0	 116	 0	 1195000	 5577469	 +2.54446	 -5.92115	 -7.54788	 -0.3397	 +0.0108	 +0.0210	 -0.15979	 +0.66366	 -1.90339	 +42.90588	 -91.2531	 +25.3807	 +23.4019	 +0.0004086	 -0.0050636	 -58.3573	 +1.5491	 +0.0000	 +412.9562	 9990144	 13828	 335547859	 0
0	 10	 0	 116	 0	 1195000	 5582469	 +2.55293	 -5.91309	 -7.57478	 -0.3136	 +0.1642	 +0.1182	 -0.16002	 +0.66363	 -1.90380	 +42.81176	 -91.2817	 +25.4031	 +23.4200	 +0.0004097	 -0.0050677	 -58.4744	 +1.5490	 +0.0000	 +412.9562	 9990144	 13828	 335547859	 0
0	 11	 0	 116	 0	 1195000	 5587469	 +2.53558	 -5.92508	 -7.62154	 -0.3777	 +0.1817	 +0.0970	 -0.16025	 +0.66360	 -1.90422	 +42.90588	 -91.3103	 +25.4257	 +23.4381	 +0.0004108	 -0.0050718	 -58.5915	 +1.4488	 +0.0000	 +412.9562	 9990144	 13828	 335547859	 0
0	 12	 0	 116	 0	 1195000	 5592469	 +2.55799	 -5.87986	 -7.56964	 -0.4041	 +0.1074	 +0.0334	 -0.16049	 +0.66357	 -1.90464	 +42.81176	 -91.3388	 +25.4481	 +23.4562	 +0.0004120	 -0.0050760	 -58.7088	 +1.4487	 +0.0000	 +412.9562	 9990144	 13828	 335547859	 0
0	 13	 0	 116	 0	 1195000	 5597469	 +2.54368	 -5.89698	 -7.58571	 -0.4006	 +0.1954	 -0.0186	 -0.16073	 +0.66354	 -1.90507	 +42.90588	 -91.3673	 +25.4705	 +23.4744	 +0.0004131	 -0.0050801	 -58.8261	 +1.4485	 +0.0000	 +412.9562	 9990144	 13828	 335547859	 0
0	 14	 0	 116	 0	 1195000	 5602469	 +2.52295	 -5.89235	 -7.60805	 -0.4357	 +0.1658	 -0.0338	 -0.16097	 +0.66351	 -1.90550	 +42.90588	 -91.3957	 +25.4932	 +23.4925	 +0.0004143	 -0.0050842	 -58.9435	 +1.4484	 +0.0000	 +412.9562	 9990144	 13828	 335547859	 0
0	 15	 0	 116	 0	 1195000	 5607469	 +2.57389	 -5.89917	 -7.59538	 -0.3745	 +0.1085	 +0.0210	 -0.16121	 +0.66348	 -1.90593	 +43.00000	 -91.4243	 +25.5156	 +23.5106	 +0.0004154	 -0.0050884	 -59.0610	 +1.4482	 +0.0000	 +413.2147	 9990144	 13828	 335547859	 0
0	 16	 0	 116	 0	 1195000	 5612469	 +2.53005	 -5.92608	 -7.55369	 -0.3378	 +0.0938	 +0.0164	 -0.16144	 +0.66345	 -1.90635	 +42.90588	 -91.4530	 +25.5381	 +23.5289	 +0.0004166	 -0.0050925	 -59.1786	 +1.4481	 +0.0000	 +413.2147	 9990144	 13828	 335547859	 0
0	 17	 0	 116	 0	 1195000	 5617469	 +2.54287	 -5.90608	 -7.54998	 -0.3388	 +0.0896	 +0.0956	 -0.16167	 +0.66341	 -1.90677	 +42.81176	 -91.4815	 +25.5605	 +23.5473	 +0.0004177	 -0.0050966	 -59.2963	 +1.4479	 +0.0000	 +413.2147	 9990144	 13828	 335547859	 0
0	 18	 0	 116	 0	 1195000	 5622469	 +2.56318	 -5.88794	 -7.60745	 -0.3348	 +0.1079	 -0.0748	 -0.16191	 +0.66338	 -1.90720	 +42.81176	 -91.5100	 +25.5830	 +23.5653	 +0.0004189	 -0.0051008	 -59.4141	 +1.4478	 +0.0000	 +413.2147	 9990144	 13828	 335547859	 0
0	 19	 0	 116	 0	 1195000	 5627469	 +2.52847	 -5.89363	 -7.55201	 -0.4221	 +0.0662	 -0.0140	 -0.16215	 +0.66334	 -1.90763	 +42.90588	 -91.5385	 +25.6055	 +23.5837	 +0.0004200	 -0.0051049	 -59.5319	 +1.3413	 +0.0000	 +413.2147	 9990144	 13828	 335547859	 0
0	 20	 0	 116	 0	 1195000	 5632469	 +2.58109	 -5.95370	 -7.56237	 -0.3113	 +0.1975	 +0.0359	 -0.16238	 +0.66331	 -1.90805	 +42.81176	 -91.5674	 +25.6279	 +23.6019	 +0.0004212	 -0.0051091	 -59.6499	 +1.3411	 +0.0000	 +413.2147	 9990144	 13828	 335547859	 0
0	 21	 0	 116	 0	 1195000	 5637469	 +2.52737	 -5.90570	 -7.59387	 -0.3714	 +0.2052	 +0.0148	 -0.16261	 +0.66329	 -1.90848	 +42.90588	 -91.5959	 +25.6505	 +23.6201	 +0.0004223	 -0.0051132	 -59.7680	 +1.3410	 +0.0000	 +413.2147	 9990144	 13828	 335547859	 0
0	 22	 0	 116	 0	 1195000	 5642469	 +2.56337	 -5.89544	 -7.57624	 -0.3746	 +0.0414	 -0.1037	 -0.16286	 +0.66324	 -1.90891	 +42.90588	 -91.6244	 +25.6730	 +23.6383	 +0.0004235	 -0.0051173	 -59.8861	 +1.3408	 +0.0000	 +413.2147	 9990144	 13828	 335547859	 0
0	 23	 0	 116	 0	 1195000	 5647469	 +2.56479	 -5.90262	 -7.59020	 -0.2894	 +0.1066	 -0.0415	 -0.16309	 +0.66321	 -1.90934	 +42.81176	 -91.6530	 +25.6955	 +23.6564	 +0.0004246	 -0.0051215	 -60.0043	 +1.3407	 +0.0000	 +413.4731	 9990144	 13828	 335547859	 0
0	 24	 0	 116	 0	 1195000	 5652469	 +2.56118	 -5.93681	 -7.59060	 -0.2941	 +0.1567	 +0.0543	 -0.16332	 +0.66318	 -1.90976	 +42.81176	 -91.6817	 +25.7180	 +23.6746	 +0.0004258	 -0.0051256	 -60.1227	 +1.3405	 +0.0000	 +413.4731	 9990144	 13828	 335547859	 0
0	 25	 0	 116	 0	 1195000	 5657469	 +2.55007	 -5.92120	 -7.58482	 -0.3972	 +0.1207	 +0.0074	 -0.16355	 +0.66315	 -1.91019	 +42.90588	 -91.7104	 +25.7406	 +23.6928	 +0.0004269	 -0.0051298	 -60.2411	 +1.3404	 +0.0000	 +413.4731	 9990144	 13828	 335547859	 0
0	 26	 0	 116	 0	 1195000	 5662462	 +2.54425	 -5.88984	 -7.54747	 -0.2868	 +0.1491	 -0.0325	 -0.16379	 +0.66311	 -1.91062	 +42.81176	 -91.7388	 +25.7631	 +23.7112	 +0.0004281	 -0.0051339	 -60.3596	 +1.3403	 +0.0000	 +413.4731	 9990144	 13828	 335547859	 0
0	 27	 0	 116	 0	 1195000	 5667469	 +2.57056	 -5.89964	 -7.59054	 -0.3431	 +0.1422	 -0.0218	 -0.16402	 +0.66308	 -1.91105	 +42.90588	 -91.7674	 +25.7856	 +23.7293	 +0.0004293	 -0.0051381	 -60.4782	 +1.4376	 +0.0000	 +413.4731	 9990144	 13828	 335547859	 0
0	 28	 0	 116	 0	 1195000	 5672486	 +2.53039	 -5.90718	 -7.54623	 -0.3266	 +0.1834	 +0.0225	 -0.16425	 +0.66305	 -1.91147	 +42.81176	 -91.7959	 +25.8082	 +23.7478	 +0.0004304	 -0.0051422	 -60.5969	 +1.4375	 +0.0000	 +413.4731	 9990144	 13828	 335547859	 0
0	 29	 0	 116	 0	 1195000	 5677584	 +2.53652	 -5.88705	 -7.55557	 -0.4168	 +0.0732	 -0.0169	 -0.16449	 +0.66302	 -1.91190	 +42.90588	 -91.8244	 +25.8307	 +23.7662	 +0.0004316	 -0.0051464	 -60.7157	 +1.4374	 +0.0000	 +413.4731	 9990144	 13828	 335547859	 0
0	 30	 0	 116	 0	 1195000	 5682585	 +2.56747	 -5.93207	 -7.55776	 -0.3091	 +0.2046	 -0.0735	 -0.16473	 +0.66299	 -1.91234	 +42.81176	 -91.8531	 +25.8532	 +23.7845	 +0.0004327	 -0.0051505	 -60.8346	 +1.4372	 +0.0000	 +413.4731	 9990144	 13828	 335547859	 0
0	 31	 0	 116	 0	 1196000	 5687564	 +2.55205	 -5.93116	 -7.58388	 -0.4561	 +0.2074	 +0.1002	 -0.16497	 +0.66296	 -1.91275	 +42.90588	 -91.8818	 +25.8758	 +23.8027	 +0.0004339	 -0.0051547	 -60.9535	 +1.4371	 +0.0000	 +414.0765	 9990144	 13828	 335547859	 0
0	 32	 0	 116	 0	 1196000	 5692538	 +2.50866	 -5.90881	 -7.58399	 -0.4535	 +0.0985	 -0.0105	 -0.16521	 +0.66293	 -1.91318	 +42.81176	 -91.9103	 +25.8986	 +23.8211	 +0.0004351	 -0.0051588	 -61.0726	 +1.4369	 +0.0000	 +414.0765	 9990144	 13828	 335547859	 0
0	 33	 0	 116	 0	 1196000	 5697469	 +2.55265	 -5.87511	 -7.58389	 -0.3775	 +0.1654	 -0.0353	 -0.15834	 +0.65836	 -1.90610	 +42.85882	 -91.7443	 +25.1955	 +23.2248	 +0.0003963	 -0.0051498	 -57.0616	 +1.4368	 +0.0000	 +414.0765	 9990144	 13828	 335547859	 0
