Message ID	Frame counter	Reserved	Message length	GNSS Week Number	GNSS TOW	Timestamp [us]	AccX [m/s²]	AccY [m/s²]	AccZ [m/s²]	OmgX [deg/s]	OmgY [def/s]	OmgZ [def/s]	Roll [deg]	Pitch [deg]	Yaw [deg]	IMU Temp [°C]	Vx/Vnorth [m/s]	Vy/Veast [m/s]	Vz/Vdown [m/s]	Longitude [deg]	Latitude [deg]	Altitude/MSL [m]	Mag. heading [deg]	Odometer [m/s]	Pressure altitude [m]	System status	Additional system status	AHRS status	Reserved
0	 233	 0	 116	 0	 669000	 9331476	 +0.04375	 -0.18954	 -9.97591	 -0.3258	 +0.1223	 +0.0202	 -0.09855	 +0.08830	 +2.42658	 +41.68235	 -1.9699	 +0.8405	 -3.2371	 -0.0000150	 -0.0000647	 +368.9568	 +1.2530	 +0.0000	 +413.9907	 8941568	 13828	 335548275	 0
0	 234	 0	 116	 0	 669000	 9336475	 +0.06216	 -0.20123	 -9.95038	 -0.2776	 +0.1361	 +0.0534	 -0.09855	 +0.08830	 +2.42625	 +41.77647	 -1.9705	 +0.8415	 -3.2366	 -0.0000150	 -0.0000648	 +368.9731	 +1.2530	 +0.0000	 +413.9907	 8941568	 13828	 335548275	 0
0	 235	 0	 116	 0	 669000	 9341475	 +0.02725	 -0.21856	 -9.94979	 -0.3365	 +0.1326	 +0.1068	 -0.09855	 +0.08830	 +2.42593	 +41.77647	 -1.9708	 +0.8424	 -3.2361	 -0.0000149	 -0.0000649	 +368.9892	 +1.2530	 +0.0000	 +413.9907	 8941568	 13828	 335548275	 0
0	 236	 0	 116	 0	 669000	 9346475	 +0.06598	 -0.19426	 -9.93822	 -0.3558	 +0.1100	 +0.0431	 -0.09855	 +0.08830	 +2.42559	 +41.63530	 -1.9714	 +0.8434	 -3.2356	 -0.0000149	 -0.0000650	 +369.0054	 +1.0451	 +0.0000	 +413.9907	 8941568	 13828	 335548275	 0
0	 237	 0	 116	 0	 669000	 9351475	 +0.02183	 -0.19456	 -9.94233	 -0.3968	 +0.1111	 -0.0207	 -0.09856	 +0.08829	 +2.42526	 +41.72941	 -1.9718	 +0.8442	 -3.2350	 -0.0000149	 -0.0000650	 +369.0216	 +1.0451	 +0.0000	 +413.9907	 8941568	 13828	 335548275	 0
0	 238	 0	 116	 0	 669000	 9356475	 +0.05222	 -0.21144	 -9.92589	 -0.3392	 +0.1315	 +0.0187	 -0.09857	 +0.08829	 +2.42492	 +41.72941	 -1.9723	 +0.8452	 -3.2344	 -0.0000148	 -0.0000651	 +369.0378	 +1.0451	 +0.0000	 +413.9907	 8941568	 13828	 335548275	 0
0	 239	 0	 116	 0	 669000	 9361475	 +0.08869	 -0.16861	 -9.97617	 -0.3512	 +0.1852	 -0.0026	 -0.09857	 +0.08829	 +2.42459	 +41.72941	 -1.9730	 +0.8461	 -3.2341	 -0.0000148	 -0.0000652	 +369.0539	 +1.0451	 +0.0000	 +413.9907	 8941568	 13828	 335548275	 0
0	 240	 0	 116	 0	 669000	 9366475	 +0.06211	 -0.19455	 -9.96305	 -0.4023	 +0.1516	 -0.0102	 -0.09858	 +0.08829	 +2.42425	 +41.72941	 -1.9736	 +0.8470	 -3.2337	 -0.0000147	 -0.0000653	 +369.0701	 +1.0451	 +0.0000	 +413.9907	 8941568	 13828	 335548275	 0
0	 241	 0	 116	 0	 669000	 9371476	 +0.07688	 -0.19564	 -9.98075	 -0.4000	 +0.1370	 +0.0158	 -0.09859	 +0.08829	 +2.42391	 +41.63530	 -1.9741	 +0.8480	 -3.2334	 -0.0000147	 -0.0000654	 +369.0863	 +1.0451	 +0.0000	 +413.9907	 8941568	 13828	 335548275	 0
0	 242	 0	 116	 0	 669000	 9376476	 +0.10163	 -0.20491	 -9.92129	 -0.4136	 +0.1139	 -0.0024	 -0.09860	 +0.08829	 +2.42358	 +41.72941	 -1.9748	 +0.8492	 -3.2328	 -0.0000147	 -0.0000655	 +369.1024	 +1.0451	 +0.0000	 +413.9907	 8941568	 13828	 335548275	 0
0	 243	 0	 116	 0	 669000	 9381475	 +0.10811	 -0.21265	 -9.99228	 -0.3375	 +0.1745	 +0.0810	 -0.09860	 +0.08829	 +2.42325	 +41.63530	 -1.9755	 +0.8503	 -3.2326	 -0.0000146	 -0.0000656	 +369.1186	 +1.0451	 +0.0000	 +413.9907	 8941568	 13828	 335548275	 0
0	 244	 0	 116	 0	 669000	 9386475	 +0.05391	 -0.19435	 -9.96319	 -0.2609	 +0.1151	 -0.0636	 -0.09860	 +0.08829	 +2.42291	 +41.72941	 -1.9760	 +0.8512	 -3.2322	 -0.0000146	 -0.0000657	 +369.1348	 +1.0998	 +0.0000	 +413.9907	 8941568	 13828	 335548275	 0
0	 245	 0	 116	 0	 669000	 9391475	 +0.04020	 -0.20628	 -9.92629	 -0.2825	 +0.2234	 -0.1032	 -0.09859	 +0.08829	 +2.42256	 +41.63530	 -1.9764	 +0.8522	 -3.2316	 -0.0000145	 -0.0000658	 +369.1509	 +1.0998	 +0.0000	 +413.9907	 8941568	 13828	 335548275	 0
0	 246	 0	 116	 0	 669000	 9396476	 +0.06388	 -0.17861	 -9.96558	 -0.3215	 +0.1437	 -0.0513	 -0.09860	 +0.08829	 +2.42222	 +41.72941	 -1.9770	 +0.8530	 -3.2312	 -0.0000145	 -0.0000658	 +369.1671	 +1.0998	 +0.0000	 +413.9907	 8941568	 13828	 335548275	 0
0	 247	 0	 116	 0	 669000	 9401475	 +0.04958	 -0.19506	 -9.95057	 -0.3023	 +0.1430	 +0.0613	 -0.09860	 +0.08829	 +2.42189	 +41.63530	 -1.9775	 +0.8540	 -3.2307	 -0.0000145	 -0.0000659	 +369.1832	 +1.0998	 +0.0000	 +413.9907	 8941568	 13828	 335548275	 0
0	 248	 0	 116	 0	 669000	 9406475	 +0.07061	 -0.17545	 -9.93981	 -0.3358	 +0.1092	 -0.0785	 -0.09860	 +0.08829	 +2.42155	 +41.63530	 -1.9782	 +0.8549	 -3.2302	 -0.0000144	 -0.0000660	 +369.1994	 +1.0998	 +0.0000	 +413.7316	 8941568	 13828	 335548275	 0
0	 249	 0	 116	 0	 669000	 9411475	 +0.06897	 -0.20171	 -9.93008	 -0.3037	 +0.1863	 -0.0302	 -0.09860	 +0.08829	 +2.42121	 +41.63530	 -1.9788	 +0.8559	 -3.2296	 -0.0000144	 -0.0000661	 +369.2155	 +1.0998	 +0.0000	 +413.7316	 8941568	 13828	 335548275	 0
0	 250	 0	 116	 0	 669000	 9416475	 +0.06013	 -0.17681	 -9.93256	 -0.4104	 +0.2044	 -0.0040	 -0.09861	 +0.08830	 +2.42087	 +41.63530	 -1.9794	 +0.8567	 -3.2291	 -0.0000144	 -0.0000662	 +369.2317	 +1.0998	 +0.0000	 +413.7316	 8941568	 13828	 335548275	 0
0	 251	 0	 116	 0	 669000	 9421475	 +0.06608	 -0.21177	 -9.94059	 -0.2774	 +0.1748	 -0.0347	 -0.09861	 +0.08830	 +2.42053	 +41.68235	 -1.9799	 +0.8577	 -3.2285	 -0.0000143	 -0.0000663	 +369.2478	 +1.0998	 +0.0000	 +413.7316	 8941568	 13828	 335548275	 0
0	 252	 0	 116	 0	 669000	 9426475	 +0.05017	 -0.19905	 -9.94006	 -0.2981	 +0.0936	 +0.0840	 -0.09861	 +0.08829	 +2.42020	 +41.58823	 -1.9804	 +0.8587	 -3.2280	 -0.0000143	 -0.0000664	 +369.2639	 +1.0998	 +0.0000	 +413.7316	 8941568	 13828	 335548275	 0
0	 253	 0	 116	 0	 669000	 9431475	 +0.04727	 -0.21679	 -9.97227	 -0.3510	 +0.1516	 +0.0370	 -0.09861	 +0.08829	 +2.41987	 +41.68235	 -1.9808	 +0.8597	 -3.2276	 -0.0000142	 -0.0000665	 +369.2801	 +1.0998	 +0.0000	 +413.7316	 8941568	 13828	 335548275	 0
0	 254	 0	 116	 0	 669000	 9436475	 +0.01944	 -0.21690	 -9.97218	 -0.4146	 +0.0960	 -0.0099	 -0.09862	 +0.08829	 +2.41953	 +41.68235	 -1.9811	 +0.8606	 -3.2273	 -0.0000142	 -0.0000666	 +369.2962	 +1.0998	 +0.0000	 +413.7316	 8941568	 13828	 335548275	 0
0	 255	 0	 116	 0	 669000	 9441476	 +0.09246	 -0.19397	 -9.91323	 -0.3322	 +0.1466	 -0.0741	 -0.09862	 +0.08829	 +2.41919	 +41.58823	 -1.9818	 +0.8616	 -3.2266	 -0.0000142	 -0.0000667	 +369.3124	 +1.0998	 +0.0000	 +413.7316	 8941568	 13828	 335548275	 0
0	 0	 0	 116	 0	 669000	 9446475	 +0.02799	 -0.19867	 -9.97350	 -0.2865	 +0.1684	 +0.0459	 -0.09862	 +0.08829	 +2.41886	 +41.68235	 -1.9822	 +0.8624	 -3.2262	 -0.0000141	 -0.0000667	 +369.3285	 +1.0998	 +0.0000	 +414.5935	 8941568	 13828	 335548275	 0
0	 1	 0	 116	 0	 669000	 9451475	 +0.05773	 -0.17565	 -9.93299	 -0.3515	 +0.1604	 -0.0102	 -0.09863	 +0.08829	 +2.41852	 +41.68235	 -1.9828	 +0.8633	 -3.2257	 -0.0000141	 -0.0000668	 +369.3446	 +1.0998	 +0.0000	 +414.5935	 8941568	 13828	 335548275	 0
0	 2	 0	 116	 0	 669000	 9456475	 +0.03679	 -0.20626	 -9.93529	 -0.3259	 +0.1973	 -0.0225	 -0.09863	 +0.08829	 +2.41818	 +41.68235	 -1.9832	 +0.8642	 -3.2251	 -0.0000140	 -0.0000669	 +369.3607	 +1.0998	 +0.0000	 +414.5935	 8941568	 13828	 335548275	 0
0	 3	 0	 116	 0	 669000	 9461475	 +0.07280	 -0.20737	 -9.93211	 -0.3196	 +0.1225	 -0.0026	 -0.09863	 +0.08829	 +2.41785	 +41.68235	 -1.9838	 +0.8653	 -3.2246	 -0.0000140	 -0.0000670	 +369.3769	 +1.0998	 +0.0000	 +414.5935	 8941568	 13828	 335548275	 0
0	 4	 0	 116	 0	 669000	 9466475	 +0.04866	 -0.19707	 -9.96124	 -0.3379	 +0.0135	 +0.0082	 -0.09863	 +0.08828	 +2.41751	 +41.68235	 -1.9842	 +0.8662	 -3.2242	 -0.0000140	 -0.0000671	 +369.3930	 +1.2409	 +0.0000	 +414.5935	 8941568	 13828	 335548275	 0
0	 5	 0	 116	 0	 669000	 9471498	 +0.06646	 -0.18317	 -9.92520	 -0.2538	 +0.0943	 -0.0363	 -0.09863	 +0.08827	 +2.41718	 +41.68235	 -1.9849	 +0.8671	 -3.2236	 -0.0000139	 -0.0000672	 +369.4091	 +1.2409	 +0.0000	 +414.5935	 8941568	 13828	 335548275	 0
0	 6	 0	 116	 0	 669000	 9476492	 +0.06816	 -0.25065	 -9.96845	 -0.2531	 +0.1366	 +0.0474	 -0.09862	 +0.08827	 +2.41684	 +41.68235	 -1.9852	 +0.8683	 -3.2232	 -0.0000139	 -0.0000673	 +369.4252	 +1.2409	 +0.0000	 +414.5935	 8941568	 13828	 335548275	 0
0	 7	 0	 116	 0	 669000	 9481746	 +0.05105	 -0.20372	 -9.97259	 -0.3473	 +0.1907	 +0.0292	 -0.09863	 +0.08828	 +2.41651	 +41.77647	 -1.9857	 +0.8692	 -3.2228	 -0.0000139	 -0.0000674	 +369.4413	 +1.2409	 +0.0000	 +414.5935	 8941568	 13828	 335548275	 0
0	 8	 0	 116	 0	 669000	 9486750	 +0.08424	 -0.14796	 -9.98347	 -0.3642	 +0.1291	 -0.0042	 -0.09863	 +0.08827	 +2.41617	 +41.58823	 -1.9864	 +0.8701	 -3.2225	 -0.0000138	 -0.0000675	 +369.4575	 +1.2409	 +0.0000	 +414.5935	 8941568	 13828	 335548275	 0
0	 9	 0	 116	 0	 669000	 9491711	 +0.09441	 -0.19372	 -10.02582	 -0.3661	 +0.1194	 +0.0112	 -0.09880	 +0.08869	 +2.41571	 +41.68235	 -1.9307	 +0.8533	 -3.2170	 -0.0000144	 -0.0000639	 +369.1075	 +1.2409	 +0.0000	 +414.5935	 8941568	 13828	 335548275	 0
0	 10	 0	 116	 0	 669000	 9496475	 +0.02897	 -0.18429	 -9.94919	 -0.4014	 +0.2309	 -0.0940	 -0.09881	 +0.08870	 +2.41537	 +41.77647	 -1.9312	 +0.8541	 -3.2165	 -0.0000143	 -0.0000640	 +369.1236	 +1.2409	 +0.0000	 +414.5935	 8941568	 13828	 335548275	 0
0	 11	 0	 116	 0	 669000	 9501475	 +0.07855	 -0.21059	 -9.94661	 -0.4052	 +0.0753	 -0.0907	 -0.09882	 +0.08869	 +2.41503	 +41.68235	 -1.9317	 +0.8552	 -3.2161	 -0.0000143	 -0.0000641	 +369.1396	 +1.2409	 +0.0000	 +414.5935	 8941568	 13828	 335548275	 0
0	 12	 0	 116	 0	 669000	 9506475	 +0.07357	 -0.19365	 -9.96085	 -0.3002	 +0.1116	 +0.0049	 -0.09882	 +0.08869	 +2.41469	 +41.58823	 -1.9323	 +0.8562	 -3.2156	 -0.0000143	 -0.0000642	 +369.1557	 +0.8116	 +0.0000	 +414.5935	 8941568	 13828	 335548275	 0
0	 13	 0	 116	 0	 669000	 9511476	 +0.08078	 -0.18735	 -9.95142	 -0.3486	 +0.0654	 -0.0177	 -0.09882	 +0.08868	 +2.41435	 +41.77647	 -1.9329	 +0.8572	 -3.2152	 -0.0000142	 -0.0000643	 +369.1718	 +0.8116	 +0.0000	 +414.5935	 8941568	 13828	 335548275	 0
0	 14	 0	 116	 0	 669000	 9516475	 +0.05108	 -0.19657	 -9.95416	 -0.3503	 +0.1280	 -0.0269	 -0.09883	 +0.08868	 +2.41402	 +41.68235	 -1.9333	 +0.8581	 -3.2147	 -0.0000142	 -0.0000644	 +369.1879	 +0.8116	 +0.0000	 +414.5935	 8941568	 13828	 335548275	 0
0	 15	 0	 116	 0	 669000	 9521475	 +0.04511	 -0.19987	 -9.88562	 -0.3367	 +0.1189	 -0.0482	 -0.09883	 +0.08868	 +2.41368	 +41.77647	 -1.9338	 +0.8590	 -3.2139	 -0.0000141	 -0.0000644	 +369.2039	 +0.8116	 +0.0000	 +414.5935	 8941568	 13828	 335548275	 0
0	 16	 0	 116	 0	 669000	 9526475	 +0.03526	 -0.20096	 -9.95694	 -0.3124	 +0.0794	 -0.0437	 -0.09883	 +0.08867	 +2.41334	 +41.77647	 -1.9342	 +0.8599	 -3.2135	 -0.0000141	 -0.0000645	 +369.2200	 +0.8116	 +0.0000	 +414.3350	 8941568	 13828	 335548275	 0
0	 17	 0	 116	 0	 669000	 9531475	 +0.06991	 -0.22024	 -9.95856	 -0.3529	 +0.1390	 +0.0096	 -0.09884	 +0.08867	 +2.41300	 +41.68235	 -1.9347	 +0.8609	 -3.2131	 -0.0000141	 -0.0000646	 +369.2361	 +0.8116	 +0.0000	 +414.3350	 8941568	 13828	 335548275	 0
0	 18	 0	 116	 0	 669000	 9536475	 +0.08498	 -0.17090	 -9.94072	 -0.3525	 +0.1057	 +0.0158	 -0.09884	 +0.08866	 +2.41267	 +41.58823	 -1.9354	 +0.8619	 -3.2126	 -0.0000140	 -0.0000647	 +369.2522	 +0.8116	 +0.0000	 +414.3350	 8941568	 13828	 335548275	 0
0	 19	 0	 116	 0	 669000	 9541476	 +0.06299	 -0.19951	 -9.97326	 -0.2572	 +0.1477	 +0.0140	 -0.09884	 +0.08866	 +2.41233	 +41.68235	 -1.9359	 +0.8628	 -3.2122	 -0.0000140	 -0.0000648	 +369.2682	 +0.8116	 +0.0000	 +414.3350	 8941568	 13828	 335548275	 0
0	 20	 0	 116	 0	 669000	 9546475	 +0.05303	 -0.20226	 -9.95417	 -0.2396	 +0.1029	 +0.0473	 -0.09883	 +0.08866	 +2.41200	 +41.68235	 -1.9363	 +0.8638	 -3.2117	 -0.0000140	 -0.0000649	 +369.2843	 +0.7806	 +0.0000	 +414.3350	 8941568	 13828	 335548275	 0
0	 21	 0	 116	 0	 669000	 9551475	 +0.06703	 -0.22597	 -9.96848	 -0.3362	 +0.1132	 +0.0020	 -0.09883	 +0.08866	 +2.41166	 +41.68235	 -1.9367	 +0.8649	 -3.2114	 -0.0000139	 -0.0000650	 +369.3003	 +0.7806	 +0.0000	 +414.3350	 8941568	 13828	 335548275	 0
0	 22	 0	 116	 0	 669000	 9556475	 +0.04945	 -0.18580	 -9.98069	 -0.2226	 +0.1278	 +0.0428	 -0.09883	 +0.08865	 +2.41133	 +41.68235	 -1.9372	 +0.8657	 -3.2110	 -0.0000139	 -0.0000651	 +369.3164	 +0.7806	 +0.0000	 +414.3350	 8941568	 13828	 335548275	 0
0	 23	 0	 116	 0	 669000	 9561475	 +0.09145	 -0.21110	 -9.95666	 -0.3519	 +0.1754	 -0.0148	 -0.09883	 +0.08866	 +2.41099	 +41.77647	 -1.9378	 +0.8669	 -3.2106	 -0.0000138	 -0.0000651	 +369.3324	 +0.7806	 +0.0000	 +414.3350	 8941568	 13828	 335548275	 0
0	 24	 0	 116	 0	 669000	 9566475	 +0.08326	 -0.18444	 -9.92729	 -0.3988	 +0.1779	 +0.0491	 -0.09884	 +0.08866	 +2.41066	 +41.68235	 -1.9384	 +0.8678	 -3.2100	 -0.0000138	 -0.0000652	 +369.3485	 +0.7806	 +0.0000	 +414.0765	 8941568	 13828	 335548275	 0
0	 25	 0	 116	 0	 669000	 9571475	 +0.08628	 -0.16799	 -9.98085	 -0.3210	 +0.1562	 -0.0041	 -0.09884	 +0.08866	 +2.41033	 +41.68235	 -1.9391	 +0.8688	 -3.2097	 -0.0000138	 -0.0000653	 +369.3645	 +0.7806	 +0.0000	 +414.0765	 8941568	 13828	 335548275	 0
0	 26	 0	 116	 0	 669000	 9576476	 +0.06864	 -0.19709	 -9.99966	 -0.4134	 +0.0422	 -0.0570	 -0.09885	 +0.08865	 +2.40999	 +41.77647	 -1.9396	 +0.8698	 -3.2095	 -0.0000137	 -0.0000654	 +369.3806	 +0.7806	 +0.0000	 +414.0765	 8941568	 13828	 335548275	 0
0	 27	 0	 116	 0	 669000	 9581475	 +0.04637	 -0.20389	 -9.93816	 -0.2195	 +0.0973	 +0.0519	 -0.09884	 +0.08864	 +2.40965	 +41.72941	 -1.9401	 +0.8707	 -3.2090	 -0.0000137	 -0.0000655	 +369.3966	 +0.7806	 +0.0000	 +414.0765	 8941568	 13828	 335548275	 0
0	 28	 0	 116	 0	 669000	 9586476	 +0.06545	 -0.18710	 -9.94192	 -0.4092	 +0.1184	 +0.0112	 -0.09885	 +0.08864	 +2.40932	 +41.82353	 -1.9406	 +0.8716	 -3.2085	 -0.0000136	 -0.0000656	 +369.4127	 +1.2409	 +0.0000	 +414.0765	 8941568	 13828	 335548275	 0
0	 29	 0	 116	 0	 669000	 9591475	 +0.04212	 -0.21227	 -9.94791	 -0.2913	 +0.0854	 +0.0550	 -0.09885	 +0.08864	 +2.40899	 +41.72941	 -1.9410	 +0.8726	 -3.2080	 -0.0000136	 -0.0000657	 +369.4287	 +1.2409	 +0.0000	 +414.0765	 8941568	 13828	 335548275	 0
0	 30	 0	 116	 0	 669000	 9596476	 +0.05026	 -0.22734	 -9.95622	 -0.2904	 +0.0558	 -0.0116	 -0.09885	 +0.08863	 +2.40865	 +41.63530	 -1.9414	 +0.8736	 -3.2075	 -0.0000136	 -0.0000658	 +369.4448	 +1.2409	 +0.0000	 +414.0765	 8941568	 13828	 335548275	 0
0	 31	 0	 116	 0	 669000	 9601475	 +0.03183	 -0.18213	 -9.94563	 -0.3698	 +0.1357	 -0.0193	 -0.09886	 +0.08863	 +2.40831	 +41.72941	 -1.9418	 +0.8744	 -3.2070	 -0.0000135	 -0.0000658	 +369.4608	 +1.2409	 +0.0000	 +414.0765	 8941568	 13828	 335548275	 0
0	 32	 0	 116	 0	 669000	 9606475	 +0.07555	 -0.20631	 -9.95543	 -0.3766	 +0.1150	 -0.0693	 -0.09886	 +0.08862	 +2.40797	 +41.63530	 -1.9423	 +0.8754	 -3.2066	 -0.0000135	 -0.0000659	 +369.4768	 +1.2409	 +0.0000	 +414.5935	 8941568	 13828	 335548275	 0
0	 33	 0	 116	 0	 669000	 9611475	 +0.11354	 -0.20771	 -9.94779	 -0.2742	 +0.0432	 +0.0004	 -0.09886	 +0.08861	 +2.40764	 +41.63530	 -1.9430	 +0.8766	 -3.2061	 -0.0000134	 -0.0000660	 +369.4929	 +1.2409	 +0.0000	 +414.5935	 8941568	 13828	 335548275	 0
0	 34	 0	 116	 0	 669000	 9616475	 +0.05630	 -0.19290	 -9.96177	 -0.3365	 +0.1742	 +0.0201	 -0.09886	 +0.08861	 +2.40730	 +41.72941	 -1.9435	 +0.8775	 -3.2057	 -0.0000134	 -0.0000661	 +369.5089	 +1.2409	 +0.0000	 +414.5935	 8941568	 13828	 335548275	 0
0	 35	 0	 116	 0	 669000	 9621475	 +0.08438	 -0.16990	 -9.98730	 -0.4139	 +0.1105	 +0.0082	 -0.09887	 +0.08861	 +2.40697	 +41.63530	 -1.9442	 +0.8785	 -3.2054	 -0.0000134	 -0.0000662	 +369.5249	 +1.2409	 +0.0000	 +414.5935	 8941568	 13828	 335548275	 0
0	 36	 0	 116	 0	 669000	 9626475	 +0.09365	 -0.18659	 -9.96717	 -0.3015	 +0.1013	 -0.0969	 -0.09887	 +0.08861	 +2.40662	 +41.72941	 -1.9448	 +0.8795	 -3.2051	 -0.0000133	 -0.0000663	 +369.5410	 +1.1582	 +0.0000	 +414.5935	 8941568	 13828	 335548275	 0
0	 37	 0	 116	 0	 669000	 9631476	 +0.02678	 -0.15273	 -9.96355	 -0.2560	 +0.0342	 -0.0042	 -0.09887	 +0.08859	 +2.40629	 +41.72941	 -1.9453	 +0.8802	 -3.2047	 -0.0000133	 -0.0000664	 +369.5570	 +1.1582	 +0.0000	 +414.5935	 8941568	 13828	 335548275	 0
0	 38	 0	 116	 0	 669000	 9636475	 +0.04109	 -0.20371	 -9.95306	 -0.4008	 +0.1256	 -0.0208	 -0.09888	 +0.08859	 +2.40595	 +41.72941	 -1.9457	 +0.8811	 -3.2042	 -0.0000132	 -0.0000665	 +369.5730	 +1.1582	 +0.0000	 +414.5935	 8941568	 13828	 335548275	 0
0	 39	 0	 116	 0	 669000	 9641475	 +0.06555	 -0.19531	 -9.92176	 -0.2936	 +0.0863	 -0.0451	 -0.09888	 +0.08859	 +2.40561	 +41.72941	 -1.9463	 +0.8821	 -3.2036	 -0.0000132	 -0.0000665	 +369.5890	 +1.1582	 +0.0000	 +414.5935	 8941568	 13828	 335548275	 0
0	 40	 0	 116	 0	 669000	 9646475	 +0.05540	 -0.20206	 -9.95150	 -0.3450	 +0.0935	 -0.0192	 -0.09888	 +0.08858	 +2.40527	 +41.63530	 -1.9467	 +0.8830	 -3.2031	 -0.0000132	 -0.0000666	 +369.6050	 +1.1582	 +0.0000	 +415.1111	 8941568	 13828	 335548275	 0
0	 41	 0	 116	 0	 669000	 9651476	 +0.05411	 -0.15835	 -9.97125	 -0.3045	 +0.1761	 +0.0186	 -0.09888	 +0.08858	 +2.40494	 +41.72941	 -1.9473	 +0.8838	 -3.2028	 -0.0000131	 -0.0000667	 +369.6210	 +1.1582	 +0.0000	 +415.1111	 8941568	 13828	 335548275	 0
0	 42	 0	 116	 0	 669000	 9656475	 +0.10975	 -0.20476	 -9.93683	 -0.3293	 +0.1846	 +0.0231	 -0.09889	 +0.08859	 +2.40460	 +41.72941	 -1.9480	 +0.8850	 -3.2023	 -0.0000131	 -0.0000668	 +369.6371	 +1.1582	 +0.0000	 +415.1111	 8941568	 13828	 335548275	 0
0	 43	 0	 116	 0	 669000	 9661475	 +0.11662	 -0.17630	 -9.97272	 -0.3490	 +0.1384	 +0.0414	 -0.09889	 +0.08858	 +2.40427	 +41.63530	 -1.9488	 +0.8861	 -3.2019	 -0.0000130	 -0.0000669	 +369.6531	 +1.1582	 +0.0000	 +415.1111	 8941568	 13828	 335548275	 0
0	 44	 0	 116	 0	 669000	 9666476	 +0.08396	 -0.16053	 -9.94355	 -0.3846	 +0.2033	 -0.0238	 -0.09890	 +0.08859	 +2.40393	 +41.72941	 -1.9495	 +0.8870	 -3.2015	 -0.0000130	 -0.0000670	 +369.6691	 +0.9106	 +0.0000	 +415.1111	 8941568	 13828	 335548275	 0
0	 45	 0	 116	 0	 669000	 9671493	 +0.08096	 -0.20419	 -9.92362	 -0.3925	 +0.1723	 -0.0451	 -0.09891	 +0.08859	 +2.40359	 +41.63530	 -1.9500	 +0.8880	 -3.2009	 -0.0000130	 -0.0000671	 +369.6851	 +0.9106	 +0.0000	 +415.1111	 8941568	 13828	 335548275	 0
0	 46	 0	 116	 0	 669000	 9676495	 +0.05241	 -0.18736	 -9.95905	 -0.3784	 +0.1254	 -0.0252	 -0.09891	 +0.08859	 +2.40326	 +41.63530	 -1.9505	 +0.8889	 -3.2004	 -0.0000129	 -0.0000672	 +369.7011	 +0.9106	 +0.0000	 +415.1111	 8941568	 13828	 335548275	 0
0	 47	 0	 116	 0	 669000	 9681746	 +0.01367	 -0.17120	 -9.90772	 -0.2989	 +0.1590	 -0.0225	 -0.09891	 +0.08859	 +2.40292	 +41.68235	 -1.9510	 +0.8896	 -3.1997	 -0.0000129	 -0.0000673	 +369.7171	 +0.9106	 +0.0000	 +415.1111	 8941568	 13828	 335548275	 0
0	 48	 0	 116	 0	 670000	 9686745	 +0.04075	 -0.22092	 -9.93570	 -0.3596	 +0.1707	 -0.0665	 -0.09892	 +0.08859	 +2.40258	 +41.68235	 -1.9513	 +0.8906	 -3.1992	 -0.0000128	 -0.0000673	 +369.7331	 +0.9106	 +0.0000	 +414.8520	 8941568	 13828	 335548275	 0
0	 49	 0	 116	 0	 670000	 9691711	 +0.07415	 -0.18067	 -9.92391	 -0.3414	 +0.1477	 +0.0475	 -0.09892	 +0.08859	 +2.40224	 +41.68235	 -1.9519	 +0.8916	 -3.1986	 -0.0000128	 -0.0000674	 +369.7491	 +0.9106	 +0.0000	 +414.8520	 8941568	 13828	 335548275	 0
0	 50	 0	 116	 0	 670000	 9696475	 +0.04750	 -0.18154	 -9.98399	 -0.4228	 +0.1094	 -0.0860	 -0.09880	 +0.08897	 +2.40146	 +41.68235	 -1.9070	 +0.8991	 -2.8080	 -0.0000135	 -0.0000646	 +327.3272	 +0.9106	 +0.0000	 +414.8520	 8941568	 13828	 335548403	 0
0	 51	 0	 116	 0	 670000	 9701475	 +0.10328	 -0.20980	 -9.98998	 -0.2996	 +0.1460	 -0.0300	 -0.09880	 +0.08897	 +2.40112	 +41.68235	 -1.9076	 +0.9002	 -2.8077	 -0.0000134	 -0.0000647	 +327.3412	 +0.9106	 +0.0000	 +414.8520	 8941568	 13828	 335548403	 0
0	 52	 0	 116	 0	 670000	 9706475	 +0.05988	 -0.20611	 -9.91887	 -0.3452	 +0.0705	 -0.0389	 -0.09881	 +0.08896	 +2.40078	 +41.58823	 -1.9080	 +0.9012	 -2.8070	 -0.0000134	 -0.0000647	 +327.3553	 +1.1582	 +0.0000	 +414.8520	 8941568	 13828	 335548403	 0
0	 53	 0	 116	 0	 670000	 9711475	 +0.06974	 -0.20807	 -9.97703	 -0.3583	 +0.0979	 +0.1298	 -0.09881	 +0.08896	 +2.40046	 +41.68235	 -1.9085	 +0.9023	 -2.8067	 -0.0000133	 -0.0000648	 +327.3693	 +1.1582	 +0.0000	 +414.8520	 8941568	 13828	 335548403	 0
0	 54	 0	 116	 0	 670000	 9716475	 +0.04731	 -0.20138	 -9.94100	 -0.3888	 +0.0333	 +0.0646	 -0.09882	 +0.08895	 +2.40013	 +41.68235	 -1.9089	 +0.9032	 -2.8062	 -0.0000133	 -0.0000649	 +327.3833	 +1.1582	 +0.0000	 +414.8520	 8941568	 13828	 335548403	 0
0	 55	 0	 116	 0	 670000	 9721475	 +0.07162	 -0.21050	 -9.98755	 -0.4052	 +0.1683	 +0.0433	 -0.09883	 +0.08895	 +2.39980	 +41.68235	 -1.9093	 +0.9043	 -2.8059	 -0.0000133	 -0.0000650	 +327.3973	 +1.1582	 +0.0000	 +414.8520	 8941568	 13828	 335548403	 0
0	 56	 0	 116	 0	 670000	 9726475	 +0.05291	 -0.16960	 -9.92313	 -0.3693	 +0.1514	 -0.0116	 -0.09883	 +0.08895	 +2.39946	 +41.68235	 -1.9099	 +0.9051	 -2.8053	 -0.0000132	 -0.0000651	 +327.4114	 +1.1582	 +0.0000	 +414.5935	 8941568	 13828	 335548403	 0
0	 57	 0	 116	 0	 670000	 9731475	 +0.08410	 -0.16960	 -9.90922	 -0.3594	 +0.1185	 +0.0053	 -0.09884	 +0.08894	 +2.39913	 +41.58823	 -1.9106	 +0.9061	 -2.8046	 -0.0000132	 -0.0000652	 +327.4254	 +1.1582	 +0.0000	 +414.5935	 8941568	 13828	 335548403	 0
0	 58	 0	 116	 0	 670000	 9736475	 +0.06317	 -0.19704	 -9.92167	 -0.3953	 +0.1387	 +0.0051	 -0.09885	 +0.08894	 +2.39879	 +41.58823	 -1.9111	 +0.9071	 -2.8040	 -0.0000131	 -0.0000653	 +327.4394	 +1.1582	 +0.0000	 +414.5935	 8941568	 13828	 335548403	 0
0	 59	 0	 116	 0	 670000	 9741475	 +0.04798	 -0.17524	 -9.97540	 -0.4200	 +0.1718	 -0.0177	 -0.09886	 +0.08894	 +2.39845	 +41.77647	 -1.9115	 +0.9079	 -2.8036	 -0.0000131	 -0.0000653	 +327.4534	 +1.1582	 +0.0000	 +414.5935	 8941568	 13828	 335548403	 0
0	 60	 0	 116	 0	 670000	 9746475	 +0.05936	 -0.22075	 -9.96081	 -0.3473	 +0.1556	 +0.0034	 -0.09886	 +0.08894	 +2.39812	 +41.68235	 -1.9119	 +0.9090	 -2.8032	 -0.0000130	 -0.0000654	 +327.4675	 +0.9763	 +0.0000	 +414.5935	 8941568	 13828	 335548403	 0
0	 61	 0	 116	 0	 670000	 9751475	 +0.08894	 -0.19072	 -9.94916	 -0.4497	 +0.1138	 +0.0251	 -0.09888	 +0.08894	 +2.39778	 +41.68235	 -1.9125	 +0.9100	 -2.8027	 -0.0000130	 -0.0000655	 +327.4815	 +0.9763	 +0.0000	 +414.5935	 8941568	 13828	 335548403	 0
0	 62	 0	 116	 0	 670000	 9756475	 +0.04101	 -0.18855	 -9.93900	 -0.4701	 +0.1500	 -0.0723	 -0.09889	 +0.08894	 +2.39744	 +41.68235	 -1.9129	 +0.9109	 -2.8022	 -0.0000130	 -0.0000656	 +327.4955	 +0.9763	 +0.0000	 +414.5935	 8941568	 13828	 335548403	 0
0	 63	 0	 116	 0	 670000	 9761475	 +0.02802	 -0.19534	 -9.95463	 -0.4045	 +0.1585	 -0.0116	 -0.09890	 +0.08894	 +2.39710	 +41.68235	 -1.9133	 +0.9117	 -2.8017	 -0.0000129	 -0.0000657	 +327.5095	 +0.9763	 +0.0000	 +414.5935	 8941568	 13828	 335548403	 0
0	 64	 0	 116	 0	 670000	 9766475	 +0.05641	 -0.20747	 -9.95796	 -0.3107	 +0.0580	 +0.0248	 -0.09890	 +0.08893	 +2.39677	 +41.68235	 -1.9137	 +0.9127	 -2.8013	 -0.0000129	 -0.0000658	 +327.5235	 +0.9763	 +0.0000	 +413.7316	 8941568	 13828	 335548403	 0
0	 65	 0	 116	 0	 670000	 9771475	 +0.03440	 -0.18520	 -9.90582	 -0.3567	 +0.1445	 -0.0118	 -0.09891	 +0.08893	 +2.39643	 +41.68235	 -1.9141	 +0.9136	 -2.8006	 -0.0000128	 -0.0000659	 +327.5375	 +0.9763	 +0.0000	 +413.7316	 8941568	 13828	 335548403	 0
0	 66	 0	 116	 0	 670000	 9776475	 +0.05569	 -0.16573	 -9.94849	 -0.3142	 +0.1589	 -0.0620	 -0.09891	 +0.08893	 +2.39609	 +41.68235	 -1.9147	 +0.9144	 -2.8001	 -0.0000128	 -0.0000660	 +327.5515	 +0.9763	 +0.0000	 +413.7316	 8941568	 13828	 335548403	 0
0	 67	 0	 116	 0	 670000	 9781475	 +0.04711	 -0.17859	 -9.95611	 -0.2805	 +0.1075	 -0.0817	 -0.09891	 +0.08893	 +2.39575	 +41.68235	 -1.9152	 +0.9153	 -2.7997	 -0.0000128	 -0.0000660	 +327.5655	 +0.9763	 +0.0000	 +413.7316	 8941568	 13828	 335548403	 0
0	 68	 0	 116	 0	 670000	 9786475	 +0.07470	 -0.20166	 -9.92786	 -0.3467	 +0.0504	 -0.0100	 -0.09891	 +0.08892	 +2.39541	 +41.68235	 -1.9157	 +0.9163	 -2.7991	 -0.0000127	 -0.0000661	 +327.5795	 +1.1271	 +0.0000	 +413.7316	 8941568	 13828	 335548403	 0
0	 69	 0	 116	 0	 670000	 9791475	 +0.07775	 -0.16709	 -9.94825	 -0.2831	 +0.1643	 -0.0377	 -0.09891	 +0.08892	 +2.39507	 +41.68235	 -1.9163	 +0.9173	 -2.7986	 -0.0000127	 -0.0000662	 +327.5935	 +1.1271	 +0.0000	 +413.7316	 8941568	 13828	 335548403	 0
0	 70	 0	 116	 0	 670000	 9796475	 +0.08386	 -0.21351	 -9.93490	 -0.3016	 +0.1131	 +0.0444	 -0.09891	 +0.08891	 +2.39474	 +41.58823	 -1.9168	 +0.9184	 -2.7981	 -0.0000126	 -0.0000663	 +327.6075	 +1.1271	 +0.0000	 +413.7316	 8941568	 13828	 335548403	 0
0	 71	 0	 116	 0	 670000	 9801475	 +0.05335	 -0.22836	 -9.91122	 -0.3894	 +0.1049	 +0.0067	 -0.09892	 +0.08891	 +2.39440	 +41.68235	 -1.9172	 +0.9194	 -2.7974	 -0.0000126	 -0.0000664	 +327.6215	 +1.1271	 +0.0000	 +413.7316	 8941568	 13828	 335548403	 0
0	 72	 0	 116	 0	 670000	 9806475	 +0.06565	 -0.21988	 -9.93642	 -0.3147	 +0.0739	 -0.0481	 -0.09892	 +0.08890	 +2.39406	 +41.68235	 -1.9176	 +0.9205	 -2.7968	 -0.0000126	 -0.0000665	 +327.6355	 +1.1271	 +0.0000	 +413.4731	 8941568	 13828	 335548403	 0
0	 73	 0	 116	 0	 670000	 9811475	 +0.08441	 -0.22479	 -9.94896	 -0.2496	 +0.1237	 -0.0896	 -0.09892	 +0.08890	 +2.39372	 +41.72941	 -1.9180	 +0.9217	 -2.7963	 -0.0000125	 -0.0000666	 +327.6494	 +1.1271	 +0.0000	 +413.4731	 8941568	 13828	 335548403	 0
0	 74	 0	 116	 0	 670000	 9816475	 +0.05957	 -0.18769	 -9.97458	 -0.3756	 +0.1052	 -0.0268	 -0.09892	 +0.08889	 +2.39338	 +41.72941	 -1.9185	 +0.9226	 -2.7960	 -0.0000125	 -0.0000666	 +327.6634	 +1.1271	 +0.0000	 +413.4731	 8941568	 13828	 335548403	 0
0	 75	 0	 116	 0	 670000	 9821475	 +0.08794	 -0.19367	 -9.96901	 -0.3256	 +0.0857	 -0.0025	 -0.09892	 +0.08889	 +2.39305	 +41.63530	 -1.9191	 +0.9237	 -2.7956	 -0.0000124	 -0.0000667	 +327.6774	 +1.1271	 +0.0000	 +413.4731	 8941568	 13828	 335548403	 0
0	 76	 0	 116	 0	 670000	 9826475	 +0.05477	 -0.17949	 -9.96968	 -0.2688	 +0.0672	 -0.0225	 -0.09892	 +0.08888	 +2.39271	 +41.72941	 -1.9195	 +0.9246	 -2.7952	 -0.0000124	 -0.0000668	 +327.6914	 +1.2043	 +0.0000	 +413.4731	 8941568	 13828	 335548403	 0
0	 77	 0	 116	 0	 670000	 9831475	 +0.09504	 -0.19775	 -9.98625	 -0.3716	 +0.1397	 +0.0387	 -0.09893	 +0.08888	 +2.39238	 +41.63530	 -1.9201	 +0.9257	 -2.7949	 -0.0000123	 -0.0000669	 +327.7054	 +1.2043	 +0.0000	 +413.4731	 8941568	 13828	 335548403	 0
0	 78	 0	 116	 0	 670000	 9836475	 +0.11792	 -0.21660	 -9.95340	 -0.3777	 +0.1628	 +0.0111	 -0.09893	 +0.08888	 +2.39204	 +41.72941	 -1.9207	 +0.9269	 -2.7945	 -0.0000123	 -0.0000670	 +327.7193	 +1.2043	 +0.0000	 +413.4731	 8941568	 13828	 335548403	 0
0	 79	 0	 116	 0	 670000	 9841475	 +0.06139	 -0.16390	 -9.96367	 -0.2729	 +0.1181	 -0.0073	 -0.09893	 +0.08888	 +2.39171	 +41.72941	 -1.9213	 +0.9278	 -2.7941	 -0.0000123	 -0.0000671	 +327.7333	 +1.2043	 +0.0000	 +413.4731	 8941568	 13828	 335548403	 0
0	 80	 0	 116	 0	 670000	 9846475	 +0.05747	 -0.20970	 -9.92178	 -0.3416	 +0.1610	 +0.0781	 -0.09894	 +0.08888	 +2.39138	 +41.63530	 -1.9217	 +0.9288	 -2.7935	 -0.0000122	 -0.0000672	 +327.7473	 +1.2043	 +0.0000	 +414.3350	 8941568	 13828	 335548403	 0
0	 81	 0	 116	 0	 670000	 9851476	 +0.05258	 -0.19470	 -9.93853	 -0.3625	 +0.1293	 +0.0050	 -0.09894	 +0.08888	 +2.39104	 +41.72941	 -1.9222	 +0.9298	 -2.7929	 -0.0000122	 -0.0000673	 +327.7612	 +1.2043	 +0.0000	 +414.3350	 8941568	 13828	 335548403	 0
0	 82	 0	 116	 0	 670000	 9856475	 +0.06163	 -0.18558	 -9.94367	 -0.3143	 +0.1324	 +0.0459	 -0.09894	 +0.08887	 +2.39071	 +41.72941	 -1.9227	 +0.9307	 -2.7924	 -0.0000121	 -0.0000673	 +327.7752	 +1.2043	 +0.0000	 +414.3350	 8941568	 13828	 335548403	 0
0	 83	 0	 116	 0	 670000	 9861475	 +0.04911	 -0.20237	 -9.98152	 -0.3003	 +0.1634	 +0.0748	 -0.09894	 +0.08888	 +2.39038	 +41.72941	 -1.9230	 +0.9317	 -2.7921	 -0.0000121	 -0.0000674	 +327.7892	 +1.2043	 +0.0000	 +414.3350	 8941568	 13828	 335548403	 0
0	 84	 0	 116	 0	 670000	 9866476	 +0.09360	 -0.19565	 -9.99411	 -0.3815	 +0.1481	 +0.0158	 -0.09895	 +0.08888	 +2.39004	 +41.63530	 -1.9236	 +0.9328	 -2.7918	 -0.0000121	 -0.0000675	 +327.8031	 +0.9106	 +0.0000	 +414.3350	 8941568	 13828	 335548403	 0
0	 85	 0	 116	 0	 670000	 9871492	 +0.06347	 -0.18811	 -9.96274	 -0.3622	 +0.1556	 -0.0011	 -0.09895	 +0.08888	 +2.38971	 +41.72941	 -1.9241	 +0.9337	 -2.7914	 -0.0000120	 -0.0000676	 +327.8171	 +0.9106	 +0.0000	 +414.3350	 8941568	 13828	 335548403	 0
0	 86	 0	 116	 0	 670000	 9876493	 +0.06300	 -0.17166	 -9.91989	 -0.4795	 +0.1140	 +0.0070	 -0.09897	 +0.08887	 +2.38937	 +41.63530	 -1.9247	 +0.9346	 -2.7908	 -0.0000120	 -0.0000677	 +327.8311	 +0.9106	 +0.0000	 +414.3350	 8941568	 13828	 335548403	 0
0	 87	 0	 116	 0	 670000	 9881745	 +0.10932	 -0.20771	 -9.92368	 -0.3803	 +0.0943	 -0.0116	 -0.09898	 +0.08887	 +2.38904	 +41.72941	 -1.9253	 +0.9358	 -2.7902	 -0.0000119	 -0.0000678	 +327.8450	 +0.9106	 +0.0000	 +414.3350	 8941568	 13828	 335548403	 0
0	 88	 0	 116	 0	 670000	 9886746	 +0.05101	 -0.18068	 -9.93821	 -0.3694	 +0.1253	 -0.0009	 -0.09898	 +0.08886	 +2.38870	 +41.63530	 -1.9258	 +0.9367	 -2.7897	 -0.0000119	 -0.0000679	 +327.8589	 +0.9106	 +0.0000	 +414.3350	 8941568	 13828	 335548403	 0
0	 89	 0	 116	 0	 670000	 9891711	 +0.06538	 -0.19225	 -9.94701	 -0.3923	 +0.0512	 +0.0252	 -0.09899	 +0.08886	 +2.38837	 +41.63530	 -1.9263	 +0.9377	 -2.7892	 -0.0000118	 -0.0000679	 +327.8729	 +0.9106	 +0.0000	 +414.3350	 8941568	 13828	 335548403	 0
0	 90	 0	 116	 0	 670000	 9896475	 +0.07352	 -0.20242	 -9.98649	 -0.3315	 +0.0828	 -0.0131	 -0.09892	 +0.08925	 +2.38766	 +41.63530	 -1.8792	 +0.9388	 -2.4776	 -0.0000125	 -0.0000650	 +293.9819	 +0.9106	 +0.0000	 +414.3350	 8941568	 13828	 335548403	 0
0	 91	 0	 116	 0	 670000	 9901476	 +0.06944	 -0.21962	 -9.94687	 -0.3146	 +0.1214	 -0.0269	 -0.09892	 +0.08924	 +2.38732	 +41.63530	 -1.8796	 +0.9399	 -2.4771	 -0.0000125	 -0.0000650	 +293.9943	 +0.9106	 +0.0000	 +414.3350	 8941568	 13828	 335548403	 0
0	 92	 0	 116	 0	 670000	 9906475	 +0.07255	 -0.16998	 -9.94245	 -0.3681	 +0.0164	 -0.0556	 -0.09892	 +0.08923	 +2.38698	 +41.72941	 -1.8802	 +0.9408	 -2.4766	 -0.0000125	 -0.0000651	 +294.0067	 +1.3855	 +0.0000	 +414.3350	 8941568	 13828	 335548403	 0
0	 93	 0	 116	 0	 670000	 9911476	 +0.07377	 -0.19952	 -9.91234	 -0.3721	 +0.1071	 +0.0234	 -0.09893	 +0.08923	 +2.38664	 +41.63530	 -1.8807	 +0.9419	 -2.4759	 -0.0000124	 -0.0000652	 +294.0190	 +1.3855	 +0.0000	 +414.3350	 8941568	 13828	 335548403	 0
0	 94	 0	 116	 0	 670000	 9916475	 +0.08024	 -0.18849	 -9.96567	 -0.3847	 +0.1296	 -0.0070	 -0.09894	 +0.08922	 +2.38631	 +41.72941	 -1.8812	 +0.9429	 -2.4755	 -0.0000124	 -0.0000653	 +294.0314	 +1.3855	 +0.0000	 +414.3350	 8941568	 13828	 335548403	 0
0	 95	 0	 116	 0	 670000	 9921475	 +0.05747	 -0.20852	 -9.93197	 -0.3743	 +0.0636	 +0.0143	 -0.09895	 +0.08922	 +2.38597	 +41.63530	 -1.8816	 +0.9439	 -2.4749	 -0.0000123	 -0.0000654	 +294.0438	 +1.3855	 +0.0000	 +414.3350	 8941568	 13828	 335548403	 0
0	 96	 0	 116	 0	 670000	 9926476	 +0.03433	 -0.19981	 -9.93820	 -0.3132	 +0.1595	 +0.0384	 -0.09895	 +0.08922	 +2.38564	 +41.72941	 -1.8819	 +0.9448	 -2.4744	 -0.0000123	 -0.0000655	 +294.0562	 +1.3855	 +0.0000	 +413.8180	 8941568	 13828	 335548403	 0
0	 97	 0	 116	 0	 670000	 9931475	 +0.04340	 -0.18618	 -9.93480	 -0.3425	 +0.1558	 +0.0217	 -0.09895	 +0.08922	 +2.38531	 +41.68235	 -1.8823	 +0.9457	 -2.4738	 -0.0000122	 -0.0000656	 +294.0685	 +1.3855	 +0.0000	 +413.8180	 8941568	 13828	 335548403	 0
0	 98	 0	 116	 0	 670000	 9936475	 +0.08514	 -0.20493	 -9.96991	 -0.2695	 +0.0799	 +0.0718	 -0.09895	 +0.08921	 +2.38498	 +41.68235	 -1.8828	 +0.9468	 -2.4734	 -0.0000122	 -0.0000656	 +294.0809	 +1.3855	 +0.0000	 +413.8180	 8941568	 13828	 335548403	 0
0	 99	 0	 116	 0	 670000	 9941475	 +0.06121	 -0.20266	 -9.95227	 -0.3883	 +0.1276	 -0.0025	 -0.09895	 +0.08921	 +2.38464	 +41.68235	 -1.8832	 +0.9478	 -2.4729	 -0.0000122	 -0.0000657	 +294.0933	 +1.3855	 +0.0000	 +413.8180	 8941568	 13828	 335548403	 0
0	 100	 0	 116	 0	 670000	 9946476	 +0.08410	 -0.19266	 -9.96801	 -0.3304	 +0.1421	 +0.0141	 -0.09896	 +0.08921	 +2.38431	 +41.77647	 -1.8837	 +0.9489	 -2.4726	 -0.0000121	 -0.0000658	 +294.1057	 +0.9941	 +0.0000	 +413.8180	 8941568	 13828	 335548403	 0
0	 101	 0	 116	 0	 670000	 9951475	 +0.04382	 -0.21472	 -10.00281	 -0.3422	 +0.1358	 +0.1616	 -0.09896	 +0.08921	 +2.38398	 +41.68235	 -1.8840	 +0.9499	 -2.4723	 -0.0000121	 -0.0000659	 +294.1180	 +0.9941	 +0.0000	 +413.8180	 8941568	 13828	 335548403	 0
0	 102	 0	 116	 0	 670000	 9956475	 +0.08866	 -0.19628	 -9.91081	 -0.3836	 +0.1262	 -0.0117	 -0.09897	 +0.08920	 +2.38365	 +41.68235	 -1.8846	 +0.9510	 -2.4717	 -0.0000120	 -0.0000660	 +294.1304	 +0.9941	 +0.0000	 +413.8180	 8941568	 13828	 335548403	 0
0	 103	 0	 116	 0	 670000	 9961475	 +0.03917	 -0.21957	 -9.96224	 -0.2787	 +0.0815	 -0.0270	 -0.09897	 +0.08920	 +2.38331	 +41.58823	 -1.8848	 +0.9520	 -2.4712	 -0.0000120	 -0.0000661	 +294.1427	 +0.9941	 +0.0000	 +413.8180	 8941568	 13828	 335548403	 0
0	 104	 0	 116	 0	 670000	 9966475	 +0.05960	 -0.19189	 -9.97080	 -0.3033	 +0.1944	 -0.0772	 -0.09897	 +0.08920	 +2.38297	 +41.58823	 -1.8852	 +0.9530	 -2.4708	 -0.0000119	 -0.0000661	 +294.1551	 +0.9941	 +0.0000	 +414.0765	 8941568	 13828	 335548403	 0
0	 105	 0	 116	 0	 670000	 9971475	 +0.06010	 -0.22169	 -9.88804	 -0.3124	 +0.1237	 +0.0019	 -0.09897	 +0.08920	 +2.38263	 +41.77647	 -1.8856	 +0.9540	 -2.4700	 -0.0000119	 -0.0000662	 +294.1674	 +0.9941	 +0.0000	 +414.0765	 8941568	 13828	 335548403	 0
0	 106	 0	 116	 0	 670000	 9976475	 +0.07232	 -0.21886	 -9.95101	 -0.3105	 +0.1027	 +0.0004	 -0.09897	 +0.08919	 +2.38229	 +41.68235	 -1.8860	 +0.9551	 -2.4695	 -0.0000119	 -0.0000663	 +294.1798	 +0.9941	 +0.0000	 +414.0765	 8941568	 13828	 335548403	 0
0	 107	 0	 116	 0	 670000	 9981475	 +0.05458	 -0.22177	 -9.95379	 -0.4105	 +0.1141	 -0.0237	 -0.09898	 +0.08919	 +2.38196	 +41.68235	 -1.8863	 +0.9562	 -2.4691	 -0.0000118	 -0.0000664	 +294.1921	 +0.9941	 +0.0000	 +414.0765	 8941568	 13828	 335548403	 0
0	 108	 0	 116	 0	 670000	 9986475	 +0.05728	 -0.17476	 -9.92070	 -0.3454	 +0.1482	 -0.0056	 -0.09898	 +0.08919	 +2.38162	 +41.58823	 -1.8869	 +0.9571	 -2.4684	 -0.0000118	 -0.0000665	 +294.2045	 +1.1272	 +0.0000	 +414.0765	 8941568	 13828	 335548403	 0
0	 109	 0	 116	 0	 670000	 9991475	 +0.07514	 -0.19540	 -9.93431	 -0.3735	 +0.1030	 -0.0893	 -0.09899	 +0.08918	 +2.38128	 +41.77647	 -1.8873	 +0.9581	 -2.4679	 -0.0000117	 -0.0000666	 +294.2168	 +1.1272	 +0.0000	 +414.0765	 8941568	 13828	 335548403	 0
0	 110	 0	 116	 0	 670000	 9996475	 +0.08206	 -0.18986	 -9.99073	 -0.3616	 -0.0047	 +0.0463	 -0.09900	 +0.08917	 +2.38094	 +41.68235	 -1.8878	 +0.9592	 -2.4676	 -0.0000117	 -0.0000667	 +294.2292	 +1.1272	 +0.0000	 +414.0765	 8941568	 13828	 335548403	 0
0	 111	 0	 116	 0	 670000	 1476	 +0.06010	 -0.19430	 -9.96569	 -0.4101	 +0.0915	 -0.0373	 -0.09901	 +0.08916	 +2.38061	 +41.68235	 -1.8883	 +0.9602	 -2.4672	 -0.0000116	 -0.0000667	 +294.2415	 +1.1271	 +0.0000	 +414.0765	 8941568	 13828	 335548403	 0
0	 112	 0	 116	 0	 670000	 6476	 +0.05983	 -0.20755	 -9.93399	 -0.3287	 +0.1118	 -0.0558	 -0.09901	 +0.08916	 +2.38027	 +41.68235	 -1.8887	 +0.9612	 -2.4666	 -0.0000116	 -0.0000668	 +294.2538	 +1.1271	 +0.0000	 +414.3350	 8941568	 13828	 335548403	 0
0	 113	 0	 116	 0	 670000	 11475	 +0.05871	 -0.19949	 -9.96419	 -0.3228	 +0.1637	 -0.0118	 -0.09901	 +0.08916	 +2.37993	 +41.77647	 -1.8891	 +0.9622	 -2.4662	 -0.0000116	 -0.0000669	 +294.2661	 +1.1271	 +0.0000	 +414.3350	 8941568	 13828	 335548403	 0
0	 114	 0	 116	 0	 670000	 16476	 +0.03884	 -0.17922	 -9.98396	 -0.3320	 +0.2049	 -0.0225	 -0.09901	 +0.08916	 +2.37959	 +41.68235	 -1.8895	 +0.9631	 -2.4659	 -0.0000115	 -0.0000670	 +294.2785	 +1.1271	 +0.0000	 +414.3350	 8941568	 13828	 335548403	 0
0	 115	 0	 116	 0	 670000	 21475	 +0.05472	 -0.20399	 -10.00592	 -0.3266	 +0.1261	 -0.0527	 -0.09902	 +0.08916	 +2.37925	 +41.68235	 -1.8898	 +0.9641	 -2.4657	 -0.0000115	 -0.0000671	 +294.2908	 +1.1271	 +0.0000	 +414.3350	 8941568	 13828	 335548403	 0
0	 116	 0	 116	 0	 670000	 26475	 +0.05551	 -0.20987	 -9.94245	 -0.3861	 +0.0639	 -0.0100	 -0.09902	 +0.08915	 +2.37891	 +41.68235	 -1.8902	 +0.9651	 -2.4651	 -0.0000114	 -0.0000672	 +294.3031	 +1.1739	 +0.0000	 +414.3350	 8941568	 13828	 335548403	 0
0	 117	 0	 116	 0	 670000	 31476	 +0.04427	 -0.17432	 -9.93672	 -0.3450	 +0.0199	 +0.0402	 -0.09903	 +0.08914	 +2.37858	 +41.68235	 -1.8906	 +0.9660	 -2.4646	 -0.0000114	 -0.0000673	 +294.3155	 +1.1739	 +0.0000	 +414.3350	 8941568	 13828	 335548403	 0
0	 118	 0	 116	 0	 670000	 36476	 +0.08252	 -0.22646	 -9.92699	 -0.3209	 +0.1700	 +0.0627	 -0.09903	 +0.08914	 +2.37825	 +41.58823	 -1.8910	 +0.9671	 -2.4640	 -0.0000113	 -0.0000673	 +294.3278	 +1.1739	 +0.0000	 +414.3350	 8941568	 13828	 335548403	 0
0	 119	 0	 116	 0	 670000	 41476	 +0.07569	 -0.21420	 -9.93224	 -0.3677	 +0.0721	 -0.0860	 -0.09904	 +0.08913	 +2.37791	 +41.68235	 -1.8915	 +0.9683	 -2.4634	 -0.0000113	 -0.0000674	 +294.3401	 +1.1739	 +0.0000	 +414.3350	 8941568	 13828	 335548403	 0
0	 120	 0	 116	 0	 670000	 46475	 +0.04666	 -0.20072	 -9.97888	 -0.4130	 +0.0456	 -0.0235	 -0.09905	 +0.08912	 +2.37757	 +41.63530	 -1.8918	 +0.9692	 -2.4631	 -0.0000113	 -0.0000675	 +294.3524	 +1.1739	 +0.0000	 +414.0765	 8941568	 13828	 335548403	 0
0	 121	 0	 116	 0	 670000	 51475	 +0.05063	 -0.20473	 -9.96125	 -0.3805	 +0.1492	 +0.0294	 -0.09905	 +0.08912	 +2.37724	 +41.72941	 -1.8922	 +0.9702	 -2.4626	 -0.0000112	 -0.0000676	 +294.3647	 +1.1739	 +0.0000	 +414.0765	 8941568	 13828	 335548403	 0
0	 122	 0	 116	 0	 670000	 56476	 +0.05515	 -0.16301	 -9.95944	 -0.2849	 +0.1426	 -0.0164	 -0.09905	 +0.08912	 +2.37690	 +41.63530	 -1.8927	 +0.9711	 -2.4622	 -0.0000112	 -0.0000677	 +294.3770	 +1.1739	 +0.0000	 +414.0765	 8941568	 13828	 335548403	 0
0	 123	 0	 116	 0	 670000	 61476	 +0.02421	 -0.19523	 -9.93494	 -0.3766	 +0.1502	 -0.0465	 -0.09906	 +0.08912	 +2.37656	 +41.63530	 -1.8930	 +0.9720	 -2.4616	 -0.0000111	 -0.0000678	 +294.3893	 +1.1739	 +0.0000	 +414.0765	 8941568	 13828	 335548403	 0
0	 124	 0	 116	 0	 670000	 66476	 +0.04329	 -0.20463	 -9.98505	 -0.3751	 +0.1164	 -0.0237	 -0.09907	 +0.08912	 +2.37622	 +41.63530	 -1.8933	 +0.9729	 -2.4613	 -0.0000111	 -0.0000679	 +294.4016	 +1.1581	 +0.0000	 +414.0765	 8941568	 13828	 335548403	 0
0	 125	 0	 116	 0	 670000	 71495	 +0.06915	 -0.17657	 -9.96976	 -0.2669	 +0.0812	 +0.0444	 -0.09906	 +0.08911	 +2.37589	 +41.72941	 -1.8938	 +0.9739	 -2.4609	 -0.0000110	 -0.0000679	 +294.4140	 +1.1581	 +0.0000	 +414.0765	 8941568	 13828	 335548403	 0
0	 126	 0	 116	 0	 670000	 76493	 +0.07348	 -0.18913	 -9.97141	 -0.3706	 +0.1010	 +0.0341	 -0.09907	 +0.08911	 +2.37556	 +41.72941	 -1.8943	 +0.9749	 -2.4605	 -0.0000110	 -0.0000680	 +294.4263	 +1.1581	 +0.0000	 +414.0765	 8941568	 13828	 335548403	 0
0	 127	 0	 116	 0	 670000	 81730	 +0.07650	 -0.17801	 -9.92403	 -0.3620	 +0.0838	 +0.0446	 -0.09907	 +0.08910	 +2.37522	 +41.72941	 -1.8948	 +0.9759	 -2.4600	 -0.0000110	 -0.0000681	 +294.4386	 +1.1581	 +0.0000	 +414.0765	 8941568	 13828	 335548403	 0
0	 128	 0	 116	 0	 670000	 86745	 +0.03790	 -0.15961	 -9.93406	 -0.3126	 +0.1126	 +0.0127	 -0.09907	 +0.08910	 +2.37489	 +41.63530	 -1.8953	 +0.9767	 -2.4594	 -0.0000109	 -0.0000682	 +294.4509	 +1.1581	 +0.0000	 +413.8180	 8941568	 13828	 335548403	 0
0	 129	 0	 116	 0	 670000	 91710	 +0.05514	 -0.21588	 -9.91280	 -0.3840	 +0.1576	 +0.0660	 -0.09908	 +0.08910	 +2.37456	 +41.63530	 -1.8957	 +0.9777	 -2.4587	 -0.0000109	 -0.0000683	 +294.4632	 +1.1581	 +0.0000	 +413.8180	 8941568	 13828	 335548403	 0
0	 130	 0	 116	 0	 670000	 96475	 +0.05022	 -0.18383	 -9.90780	 -0.3549	 +0.0804	 -0.0208	 -0.09905	 +0.08950	 +2.37390	 +41.82353	 -1.8474	 +0.9737	 -2.2039	 -0.0000116	 -0.0000652	 +266.7527	 +1.1581	 +0.0000	 +413.8180	 8941568	 13828	 335548403	 0
0	 131	 0	 116	 0	 670000	 101475	 +0.06166	 -0.19812	 -9.94486	 -0.3010	 +0.0311	 +0.0279	 -0.09905	 +0.08949	 +2.37356	 +41.72941	 -1.8478	 +0.9747	 -2.2034	 -0.0000116	 -0.0000653	 +266.7638	 +1.1581	 +0.0000	 +413.8180	 8941568	 13828	 335548403	 0
0	 132	 0	 116	 0	 670000	 106475	 +0.06011	 -0.18194	 -9.95044	 -0.2880	 +0.1073	 -0.0194	 -0.09905	 +0.08948	 +2.37322	 +41.72941	 -1.8482	 +0.9757	 -2.2029	 -0.0000115	 -0.0000654	 +266.7748	 +0.9583	 +0.0000	 +413.8180	 8941568	 13828	 335548403	 0
0	 133	 0	 116	 0	 670000	 111475	 +0.06865	 -0.19962	 -10.00159	 -0.3270	 +0.1363	 -0.0026	 -0.09905	 +0.08948	 +2.37289	 +41.72941	 -1.8486	 +0.9767	 -2.2027	 -0.0000115	 -0.0000655	 +266.7858	 +0.9583	 +0.0000	 +413.8180	 8941568	 13828	 335548403	 0
0	 134	 0	 116	 0	 670000	 116475	 +0.04446	 -0.21827	 -9.95710	 -0.4088	 +0.1066	 -0.0282	 -0.09906	 +0.08948	 +2.37255	 +41.63530	 -1.8489	 +0.9778	 -2.2022	 -0.0000114	 -0.0000655	 +266.7968	 +0.9583	 +0.0000	 +413.8180	 8941568	 13828	 335548403	 0
0	 135	 0	 116	 0	 670000	 121475	 +0.06154	 -0.17755	 -9.95226	 -0.3519	 +0.0789	 -0.0132	 -0.09906	 +0.08947	 +2.37221	 +41.72941	 -1.8493	 +0.9787	 -2.2018	 -0.0000114	 -0.0000656	 +266.8078	 +0.9583	 +0.0000	 +413.8180	 8941568	 13828	 335548403	 0
0	 136	 0	 116	 0	 670000	 126475	 +0.05204	 -0.20199	 -9.95617	 -0.3028	 +0.1595	 +0.0384	 -0.09906	 +0.08947	 +2.37188	 +41.63530	 -1.8497	 +0.9797	 -2.2013	 -0.0000113	 -0.0000657	 +266.8188	 +0.9583	 +0.0000	 +413.8180	 8941568	 13828	 335548403	 0
0	 137	 0	 116	 0	 670000	 131475	 +0.03569	 -0.21422	 -9.97566	 -0.3248	 +0.0575	 -0.0693	 -0.09907	 +0.08946	 +2.37154	 +41.63530	 -1.8499	 +0.9807	 -2.2009	 -0.0000113	 -0.0000658	 +266.8298	 +0.9583	 +0.0000	 +413.8180	 8941568	 13828	 335548403	 0
0	 138	 0	 116	 0	 670000	 136475	 +0.05589	 -0.19534	 -9.94288	 -0.3259	 +0.1268	 -0.0270	 -0.09907	 +0.08946	 +2.37120	 +41.63530	 -1.8503	 +0.9817	 -2.2004	 -0.0000113	 -0.0000659	 +266.8408	 +0.9583	 +0.0000	 +413.8180	 8941568	 13828	 335548403	 0
0	 139	 0	 116	 0	 670000	 141475	 +0.04714	 -0.19118	 -9.96560	 -0.2935	 +0.0831	 +0.0522	 -0.09907	 +0.08945	 +2.37087	 +41.63530	 -1.8506	 +0.9826	 -2.2000	 -0.0000112	 -0.0000660	 +266.8518	 +0.9583	 +0.0000	 +413.8180	 8941568	 13828	 335548403	 0
0	 140	 0	 116	 0	 670000	 146475	 +0.06587	 -0.19459	 -9.95402	 -0.3082	 +0.1692	 +0.0263	 -0.09907	 +0.08945	 +2.37054	 +41.63530	 -1.8510	 +0.9836	 -2.1995	 -0.0000112	 -0.0000660	 +266.8628	 +1.2178	 +0.0000	 +413.8180	 8941568	 13828	 335548403	 0
0	 141	 0	 116	 0	 670000	 151475	 +0.06685	 -0.19738	 -9.95170	 -0.3518	 +0.1140	 +0.0068	 -0.09907	 +0.08945	 +2.37020	 +41.72941	 -1.8515	 +0.9846	 -2.1990	 -0.0000111	 -0.0000661	 +266.8738	 +1.2178	 +0.0000	 +413.8180	 8941568	 13828	 335548403	 0
0	 142	 0	 116	 0	 670000	 156475	 +0.05687	 -0.21726	 -9.97088	 -0.4404	 +0.1478	 +0.0144	 -0.09909	 +0.08945	 +2.36987	 +41.63530	 -1.8518	 +0.9857	 -2.1986	 -0.0000111	 -0.0000662	 +266.8848	 +1.2178	 +0.0000	 +413.8180	 8941568	 13828	 335548403	 0
0	 143	 0	 116	 0	 670000	 161475	 +0.08214	 -0.17638	 -9.95795	 -0.3354	 +0.1141	 +0.0110	 -0.09909	 +0.08944	 +2.36953	 +41.68235	 -1.8523	 +0.9867	 -2.1982	 -0.0000110	 -0.0000663	 +266.8958	 +1.2178	 +0.0000	 +413.8180	 8941568	 13828	 335548403	 0
0	 144	 0	 116	 0	 670000	 166475	 +0.07548	 -0.19010	 -9.94460	 -0.2747	 +0.1252	 +0.0552	 -0.09909	 +0.08944	 +2.36920	 +41.68235	 -1.8528	 +0.9878	 -2.1977	 -0.0000110	 -0.0000664	 +266.9068	 +1.2178	 +0.0000	 +413.8180	 8941568	 13828	 335548403	 0
0	 145	 0	 116	 0	 670000	 171475	 +0.06069	 -0.19795	 -9.95187	 -0.2850	 +0.1654	 +0.0155	 -0.09909	 +0.08944	 +2.36886	 +41.68235	 -1.8531	 +0.9888	 -2.1972	 -0.0000110	 -0.0000665	 +266.9178	 +1.2178	 +0.0000	 +413.8180	 8941568	 13828	 335548403	 0
0	 146	 0	 116	 0	 670000	 176475	 +0.06481	 -0.18619	 -9.97936	 -0.3043	 +0.1487	 +0.0232	 -0.09909	 +0.08944	 +2.36853	 +41.68235	 -1.8536	 +0.9898	 -2.1968	 -0.0000109	 -0.0000665	 +266.9288	 +1.2178	 +0.0000	 +413.8180	 8941568	 13828	 335548403	 0
0	 147	 0	 116	 0	 670000	 181475	 +0.08298	 -0.21632	 -9.92127	 -0.3136	 +0.1821	 +0.0292	 -0.09909	 +0.08945	 +2.36820	 +41.68235	 -1.8540	 +0.9909	 -2.1962	 -0.0000109	 -0.0000666	 +266.9398	 +1.2178	 +0.0000	 +413.8180	 8941568	 13828	 335548403	 0
0	 148	 0	 116	 0	 670000	 186475	 +0.07354	 -0.20069	 -9.98581	 -0.3007	 +0.1434	 -0.0119	 -0.09909	 +0.08944	 +2.36786	 +41.68235	 -1.8544	 +0.9920	 -2.1959	 -0.0000108	 -0.0000667	 +266.9507	 +1.3173	 +0.0000	 +413.8180	 8941568	 13828	 335548403	 0
0	 149	 0	 116	 0	 670000	 191475	 +0.07222	 -0.19038	 -9.92604	 -0.3451	 +0.1379	 -0.0101	 -0.09909	 +0.08944	 +2.36752	 +41.68235	 -1.8549	 +0.9930	 -2.1953	 -0.0000108	 -0.0000668	 +266.9617	 +1.3173	 +0.0000	 +413.8180	 8941568	 13828	 335548403	 0
0	 150	 0	 116	 0	 670000	 196475	 +0.06084	 -0.20312	 -9.91875	 -0.3672	 +0.1584	 -0.0695	 -0.09910	 +0.08944	 +2.36718	 +41.68235	 -1.8553	 +0.9940	 -2.1947	 -0.0000107	 -0.0000669	 +266.9727	 +1.3173	 +0.0000	 +413.8180	 8941568	 13828	 335548403	 0
0	 151	 0	 116	 0	 670000	 201475	 +0.05008	 -0.16994	 -9.91871	 -0.3185	 +0.0900	 -0.0604	 -0.09910	 +0.08944	 +2.36684	 +41.68235	 -1.8557	 +0.9949	 -2.1940	 -0.0000107	 -0.0000670	 +266.9836	 +1.3173	 +0.0000	 +413.8180	 8941568	 13828	 335548403	 0
0	 152	 0	 116	 0	 670000	 206475	 +0.02878	 -0.18166	 -9.98393	 -0.4116	 -0.0189	 +0.0221	 -0.09911	 +0.08942	 +2.36651	 +41.68235	 -1.8560	 +0.9958	 -2.1937	 -0.0000106	 -0.0000671	 +266.9946	 +1.3173	 +0.0000	 +413.8180	 8941568	 13828	 335548403	 0
0	 153	 0	 116	 0	 670000	 211475	 +0.05503	 -0.19941	 -9.92496	 -0.4196	 +0.1354	 -0.0267	 -0.09912	 +0.08942	 +2.36617	 +41.68235	 -1.8564	 +0.9968	 -2.1931	 -0.0000106	 -0.0000671	 +267.0056	 +1.3173	 +0.0000	 +413.8180	 8941568	 13828	 335548403	 0
0	 154	 0	 116	 0	 670000	 216475	 +0.03226	 -0.24799	 -9.94041	 -0.2805	 +0.1102	 +0.0262	 -0.09912	 +0.08941	 +2.36583	 +41.68235	 -1.8565	 +0.9979	 -2.1925	 -0.0000105	 -0.0000672	 +267.0166	 +1.3173	 +0.0000	 +413.8180	 8941568	 13828	 335548403	 0
0	 155	 0	 116	 0	 670000	 221475	 +0.05061	 -0.19097	 -9.93581	 -0.3743	 +0.1434	 -0.0527	 -0.09913	 +0.08941	 +2.36549	 +41.58823	 -1.8569	 +0.9988	 -2.1919	 -0.0000105	 -0.0000673	 +267.0275	 +1.3173	 +0.0000	 +413.8180	 8941568	 13828	 335548403	 0
0	 156	 0	 116	 0	 670000	 226475	 +0.04287	 -0.17951	 -9.93853	 -0.3519	 +0.1723	 -0.0270	 -0.09913	 +0.08941	 +2.36515	 +41.77647	 -1.8573	 +0.9997	 -2.1914	 -0.0000105	 -0.0000674	 +267.0385	 +1.0235	 +0.0000	 +413.8180	 8941568	 13828	 335548403	 0
0	 157	 0	 116	 0	 670000	 231475	 +0.06117	 -0.17047	 -9.89528	 -0.3373	 +0.1288	 +0.0309	 -0.09914	 +0.08941	 +2.36482	 +41.68235	 -1.8578	 +1.0006	 -2.1906	 -0.0000104	 -0.0000675	 +267.0494	 +1.0235	 +0.0000	 +413.8180	 8941568	 13828	 335548403	 0
0	 158	 0	 116	 0	 670000	 236476	 +0.07610	 -0.20658	 -9.93834	 -0.3585	 +0.0629	 -0.0069	 -0.09914	 +0.08940	 +2.36448	 +41.58823	 -1.8582	 +1.0017	 -2.1901	 -0.0000104	 -0.0000676	 +267.0604	 +1.0235	 +0.0000	 +413.8180	 8941568	 13828	 335548403	 0
0	 159	 0	 116	 0	 670000	 241475	 +0.03294	 -0.19718	 -9.92630	 -0.3695	 +0.1297	 +0.0158	 -0.09915	 +0.08940	 +2.36415	 +41.68235	 -1.8585	 +1.0026	 -2.1895	 -0.0000103	 -0.0000676	 +267.0713	 +1.0235	 +0.0000	 +413.8180	 8941568	 13828	 335548403	 0
0	 160	 0	 116	 0	 670000	 246476	 +0.06360	 -0.21174	 -9.96374	 -0.4147	 +0.0377	 +0.0236	 -0.09916	 +0.08939	 +2.36382	 +41.68235	 -1.8589	 +1.0037	 -2.1890	 -0.0000103	 -0.0000677	 +267.0823	 +1.0235	 +0.0000	 +414.0765	 8941568	 13828	 335548403	 0
0	 161	 0	 116	 0	 670000	 251475	 +0.06687	 -0.20111	 -9.95170	 -0.3928	 +0.1259	 -0.0220	 -0.09917	 +0.08939	 +2.36348	 +41.58823	 -1.8593	 +1.0048	 -2.1886	 -0.0000102	 -0.0000678	 +267.0932	 +1.0235	 +0.0000	 +414.0765	 8941568	 13828	 335548403	 0
0	 162	 0	 116	 0	 670000	 256475	 +0.06057	 -0.19712	 -9.97695	 -0.2965	 +0.0386	 +0.0659	 -0.09917	 +0.08938	 +2.36315	 +41.77647	 -1.8596	 +1.0058	 -2.1882	 -0.0000102	 -0.0000679	 +267.1042	 +1.0235	 +0.0000	 +414.0765	 8941568	 13828	 335548403	 0
0	 163	 0	 116	 0	 670000	 261476	 +0.06945	 -0.21828	 -9.95608	 -0.3429	 +0.1478	 -0.0179	 -0.09917	 +0.08938	 +2.36281	 +41.68235	 -1.8600	 +1.0069	 -2.1877	 -0.0000101	 -0.0000680	 +267.1151	 +1.0235	 +0.0000	 +414.0765	 8941568	 13828	 335548403	 0
0	 164	 0	 116	 0	 670000	 266475	 +0.05486	 -0.19655	 -9.97114	 -0.3156	 +0.2015	 +0.0550	 -0.09917	 +0.08938	 +2.36248	 +41.68235	 -1.8603	 +1.0079	 -2.1873	 -0.0000101	 -0.0000681	 +267.1260	 +0.8696	 +0.0000	 +414.0765	 8941568	 13828	 335548403	 0
0	 165	 0	 116	 0	 670000	 271492	 +0.09524	 -0.19925	 -9.94734	 -0.3436	 +0.0567	 -0.0237	 -0.09917	 +0.08937	 +2.36214	 +41.68235	 -1.8608	 +1.0091	 -2.1868	 -0.0000101	 -0.0000681	 +267.1370	 +0.8696	 +0.0000	 +414.0765	 8941568	 13828	 335548403	 0
0	 166	 0	 116	 0	 670000	 276492	 +0.07069	 -0.19082	 -9.95753	 -0.3519	 +0.1586	 -0.0422	 -0.09918	 +0.08937	 +2.36180	 +41.77647	 -1.8612	 +1.0101	 -2.1864	 -0.0000100	 -0.0000682	 +267.1479	 +0.8696	 +0.0000	 +414.0765	 8941568	 13828	 335548403	 0
0	 167	 0	 116	 0	 670000	 281745	 +0.04866	 -0.20584	 -9.96330	 -0.3102	 +0.1580	 +0.0065	 -0.09918	 +0.08937	 +2.36147	 +41.68235	 -1.8615	 +1.0111	 -2.1860	 -0.0000100	 -0.0000683	 +267.1588	 +0.8696	 +0.0000	 +414.0765	 8941568	 13828	 335548403	 0
0	 168	 0	 116	 0	 670000	 286745	 +0.07815	 -0.22075	 -9.93126	 -0.4129	 +0.0594	 +0.0327	 -0.09919	 +0.08936	 +2.36113	 +41.68235	 -1.8619	 +1.0123	 -2.1854	 -0.0000099	 -0.0000684	 +267.1698	 +0.8696	 +0.0000	 +414.0765	 8941568	 13828	 335548403	 0
0	 169	 0	 116	 0	 670000	 291675	 +0.05779	 -0.19766	 -9.95048	 -0.3272	 +0.2004	 +0.0490	 -0.09919	 +0.08937	 +2.36080	 +41.72941	 -1.8623	 +1.0133	 -2.1849	 -0.0000099	 -0.0000685	 +267.1807	 +0.8696	 +0.0000	 +414.0765	 8941568	 13828	 335548403	 0
0	 170	 0	 116	 0	 670000	 296475	 +0.06652	 -0.19553	 -9.93287	 -0.4444	 +0.1422	 +0.0051	 -0.09919	 +0.08978	 +2.36018	 +41.72941	 -1.8134	 +1.0055	 -1.9730	 -0.0000107	 -0.0000654	 +244.0922	 +0.8696	 +0.0000	 +414.0765	 8941568	 13828	 335548403	 0
0	 171	 0	 116	 0	 670000	 301475	 +0.02251	 -0.23683	 -9.96310	 -0.2701	 +0.2083	 -0.0242	 -0.09919	 +0.08978	 +2.35984	 +41.72941	 -1.8134	 +1.0065	 -1.9725	 -0.0000106	 -0.0000654	 +244.1021	 +0.8696	 +0.0000	 +414.0765	 8941568	 13828	 335548403	 0
0	 172	 0	 116	 0	 670000	 306475	 +0.05053	 -0.18174	 -9.93545	 -0.3315	 +0.1977	 -0.0482	 -0.09920	 +0.08978	 +2.35950	 +41.63530	 -1.8138	 +1.0074	 -1.9720	 -0.0000106	 -0.0000655	 +244.1119	 +1.1181	 +0.0000	 +414.0765	 8941568	 13828	 335548403	 0
0	 173	 0	 116	 0	 670000	 311475	 +0.05526	 -0.22088	 -9.90177	 -0.3863	 +0.0989	 -0.0009	 -0.09920	 +0.08978	 +2.35916	 +41.63530	 -1.8141	 +1.0085	 -1.9712	 -0.0000105	 -0.0000656	 +244.1218	 +1.1181	 +0.0000	 +414.0765	 8941568	 13828	 335548403	 0
0	 174	 0	 116	 0	 670000	 316475	 +0.03891	 -0.18459	 -9.97408	 -0.3273	 +0.1608	 -0.0847	 -0.09921	 +0.08978	 +2.35882	 +41.72941	 -1.8144	 +1.0094	 -1.9708	 -0.0000105	 -0.0000657	 +244.1316	 +1.1181	 +0.0000	 +414.0765	 8941568	 13828	 335548403	 0
0	 175	 0	 116	 0	 670000	 321475	 +0.06099	 -0.19719	 -10.00054	 -0.3125	 +0.1483	 -0.0757	 -0.09921	 +0.08978	 +2.35847	 +41.63530	 -1.8147	 +1.0104	 -1.9706	 -0.0000104	 -0.0000658	 +244.1415	 +1.1181	 +0.0000	 +414.0765	 8941568	 13828	 335548403	 0
0	 176	 0	 116	 0	 670000	 326475	 +0.03907	 -0.18132	 -9.91982	 -0.3510	 +0.1456	 -0.0146	 -0.09921	 +0.08978	 +2.35814	 +41.63530	 -1.8151	 +1.0113	 -1.9699	 -0.0000104	 -0.0000658	 +244.1513	 +1.1181	 +0.0000	 +413.8180	 8941568	 13828	 335548403	 0
0	 177	 0	 116	 0	 670000	 331475	 +0.04597	 -0.22289	 -9.95183	 -0.3953	 +0.0973	 +0.0447	 -0.09922	 +0.08977	 +2.35780	 +41.72941	 -1.8153	 +1.0124	 -1.9694	 -0.0000104	 -0.0000659	 +244.1612	 +1.1181	 +0.0000	 +413.8180	 8941568	 13828	 335548403	 0
0	 178	 0	 116	 0	 670000	 336475	 +0.06788	 -0.20206	 -9.95016	 -0.3297	 +0.2039	 +0.0658	 -0.09922	 +0.08978	 +2.35747	 +41.72941	 -1.8157	 +1.0134	 -1.9689	 -0.0000103	 -0.0000660	 +244.1710	 +1.1181	 +0.0000	 +413.8180	 8941568	 13828	 335548403	 0
0	 179	 0	 116	 0	 670000	 341476	 +0.09184	 -0.18871	 -9.95464	 -0.4264	 +0.1468	 +0.0142	 -0.09924	 +0.08978	 +2.35714	 +41.82353	 -1.8162	 +1.0145	 -1.9685	 -0.0000103	 -0.0000661	 +244.1809	 +1.1181	 +0.0000	 +413.8180	 8941568	 13828	 335548403	 0
0	 180	 0	 116	 0	 670000	 346476	 +0.03645	 -0.17215	 -9.97682	 -0.3078	 +0.1193	 -0.0544	 -0.09924	 +0.08977	 +2.35680	 +41.72941	 -1.8165	 +1.0154	 -1.9681	 -0.0000102	 -0.0000662	 +244.1907	 +1.0234	 +0.0000	 +413.8180	 8941568	 13828	 335548403	 0
0	 181	 0	 116	 0	 670000	 351476	 +0.04339	 -0.17622	 -9.92384	 -0.3459	 +0.0744	 -0.0588	 -0.09924	 +0.08976	 +2.35646	 +41.77647	 -1.8169	 +1.0163	 -1.9675	 -0.0000102	 -0.0000663	 +244.2005	 +1.0234	 +0.0000	 +413.8180	 8941568	 13828	 335548403	 0
0	 182	 0	 116	 0	 670000	 356475	 +0.03379	 -0.25125	 -9.92805	 -0.3432	 +0.1216	 -0.0529	 -0.09925	 +0.08976	 +2.35612	 +41.68235	 -1.8170	 +1.0174	 -1.9669	 -0.0000101	 -0.0000663	 +244.2104	 +1.0234	 +0.0000	 +413.8180	 8941568	 13828	 335548403	 0
0	 183	 0	 116	 0	 670000	 361476	 +0.04147	 -0.19301	 -9.94428	 -0.4014	 +0.1325	 -0.0100	 -0.09926	 +0.08976	 +2.35578	 +41.58823	 -1.8173	 +1.0183	 -1.9663	 -0.0000101	 -0.0000664	 +244.2202	 +1.0234	 +0.0000	 +413.8180	 8941568	 13828	 335548403	 0
0	 184	 0	 116	 0	 670000	 366476	 +0.05082	 -0.18163	 -9.98975	 -0.2994	 +0.1245	 +0.0795	 -0.09926	 +0.08976	 +2.35545	 +41.68235	 -1.8176	 +1.0192	 -1.9660	 -0.0000100	 -0.0000665	 +244.2301	 +1.0234	 +0.0000	 +413.8180	 8941568	 13828	 335548403	 0
0	 185	 0	 116	 0	 670000	 371475	 +0.06363	 -0.19694	 -9.93294	 -0.3548	 +0.0989	 -0.0299	 -0.09926	 +0.08975	 +2.35511	 +41.68235	 -1.8180	 +1.0203	 -1.9654	 -0.0000100	 -0.0000666	 +244.2399	 +1.0234	 +0.0000	 +413.8180	 8941568	 13828	 335548403	 0
0	 186	 0	 116	 0	 670000	 376475	 +0.08068	 -0.14652	 -9.90321	 -0.2368	 +0.1488	 -0.0151	 -0.09926	 +0.08975	 +2.35477	 +41.58823	 -1.8186	 +1.0212	 -1.9648	 -0.0000099	 -0.0000667	 +244.2497	 +1.0234	 +0.0000	 +413.8180	 8941568	 13828	 335548403	 0
0	 187	 0	 116	 0	 670000	 381475	 +0.03630	 -0.18529	 -9.90543	 -0.4334	 +0.1518	 +0.0538	 -0.09927	 +0.08975	 +2.35444	 +41.77647	 -1.8189	 +1.0221	 -1.9640	 -0.0000099	 -0.0000668	 +244.2595	 +1.0234	 +0.0000	 +413.8180	 8941568	 13828	 335548403	 0
0	 188	 0	 116	 0	 670000	 386475	 +0.07959	 -0.23008	 -9.95938	 -0.3839	 +0.1794	 +0.0338	 -0.09927	 +0.08975	 +2.35411	 +41.68235	 -1.8192	 +1.0233	 -1.9636	 -0.0000099	 -0.0000668	 +244.2693	 +1.1581	 +0.0000	 +413.8180	 8941568	 13828	 335548403	 0
0	 189	 0	 116	 0	 670000	 391475	 +0.05801	 -0.22689	 -9.94891	 -0.3079	 +0.0792	 +0.0718	 -0.09927	 +0.08974	 +2.35378	 +41.77647	 -1.8195	 +1.0244	 -1.9631	 -0.0000098	 -0.0000669	 +244.2792	 +1.1581	 +0.0000	 +413.8180	 8941568	 13828	 335548403	 0
0	 190	 0	 116	 0	 670000	 396475	 +0.08360	 -0.17497	 -9.94575	 -0.2925	 +0.1056	 +0.0505	 -0.09927	 +0.08974	 +2.35345	 +41.68235	 -1.8200	 +1.0254	 -1.9626	 -0.0000098	 -0.0000670	 +244.2890	 +1.1581	 +0.0000	 +413.8180	 8941568	 13828	 335548403	 0
0	 191	 0	 116	 0	 670000	 401475	 +0.06454	 -0.20889	 -9.96469	 -0.4044	 +0.1462	 -0.0100	 -0.09928	 +0.08974	 +2.35311	 +41.68235	 -1.8203	 +1.0265	 -1.9621	 -0.0000097	 -0.0000671	 +244.2988	 +1.1581	 +0.0000	 +413.8180	 8941568	 13828	 335548403	 0
0	 192	 0	 116	 0	 670000	 406475	 +0.05436	 -0.19809	 -9.97264	 -0.3242	 +0.0734	 +0.0187	 -0.09929	 +0.08973	 +2.35278	 +41.68235	 -1.8206	 +1.0275	 -1.9618	 -0.0000097	 -0.0000672	 +244.3086	 +1.1581	 +0.0000	 +414.3350	 8941568	 13828	 335548403	 0
0	 193	 0	 116	 0	 670000	 411475	 +0.05612	 -0.17797	 -9.99039	 -0.3935	 +0.1744	 -0.0255	 -0.09929	 +0.08973	 +2.35244	 +41.68235	 -1.8210	 +1.0285	 -1.9615	 -0.0000096	 -0.0000672	 +244.3184	 +1.1581	 +0.0000	 +414.3350	 8941568	 13828	 335548403	 0
0	 194	 0	 116	 0	 670000	 416475	 +0.03234	 -0.20871	 -9.97592	 -0.2817	 +0.1151	 +0.0323	 -0.09929	 +0.08973	 +2.35211	 +41.68235	 -1.8212	 +1.0294	 -1.9611	 -0.0000096	 -0.0000673	 +244.3282	 +1.1581	 +0.0000	 +414.3350	 8941568	 13828	 335548403	 0
0	 195	 0	 116	 0	 670000	 421475	 +0.03881	 -0.16716	 -9.98419	 -0.2781	 +0.1448	 +0.0701	 -0.09929	 +0.08973	 +2.35178	 +41.77647	 -1.8215	 +1.0303	 -1.9608	 -0.0000095	 -0.0000674	 +244.3380	 +1.1581	 +0.0000	 +414.3350	 8941568	 13828	 335548403	 0
0	 196	 0	 116	 0	 670000	 426475	 +0.03395	 -0.22286	 -9.95466	 -0.3727	 +0.1343	 -0.0329	 -0.09930	 +0.08973	 +2.35144	 +41.68235	 -1.8217	 +1.0313	 -1.9603	 -0.0000095	 -0.0000675	 +244.3478	 +1.0997	 +0.0000	 +414.3350	 8941568	 13828	 335548403	 0
0	 197	 0	 116	 0	 670000	 431475	 +0.03756	 -0.19903	 -9.98333	 -0.3991	 +0.1441	 +0.0035	 -0.09931	 +0.08973	 +2.35110	 +41.77647	 -1.8219	 +1.0322	 -1.9599	 -0.0000094	 -0.0000676	 +244.3576	 +1.0997	 +0.0000	 +414.3350	 8941568	 13828	 335548403	 0
0	 198	 0	 116	 0	 670000	 436475	 +0.07104	 -0.17175	 -9.96178	 -0.2985	 +0.1086	 +0.0657	 -0.09931	 +0.08972	 +2.35077	 +41.68235	 -1.8224	 +1.0332	 -1.9595	 -0.0000094	 -0.0000677	 +244.3674	 +1.0997	 +0.0000	 +414.3350	 8941568	 13828	 335548403	 0
0	 199	 0	 116	 0	 670000	 441475	 +0.03963	 -0.20003	 -9.93711	 -0.2594	 +0.1058	 +0.0048	 -0.09930	 +0.08972	 +2.35044	 +41.77647	 -1.8227	 +1.0342	 -1.9589	 -0.0000093	 -0.0000677	 +244.3772	 +1.0997	 +0.0000	 +414.3350	 8941568	 13828	 335548403	 0
0	 200	 0	 116	 0	 670000	 446475	 +0.09091	 -0.19498	 -9.94350	 -0.3499	 +0.1008	 -0.0177	 -0.09931	 +0.08971	 +2.35010	 +41.58823	 -1.8231	 +1.0353	 -1.9584	 -0.0000093	 -0.0000678	 +244.3870	 +1.0997	 +0.0000	 +414.5935	 8941568	 13828	 335548403	 0
0	 201	 0	 116	 0	 670000	 451475	 +0.05309	 -0.20086	 -9.93346	 -0.3210	 +0.0613	 -0.0010	 -0.09931	 +0.08970	 +2.34976	 +41.68235	 -1.8234	 +1.0363	 -1.9578	 -0.0000093	 -0.0000679	 +244.3968	 +1.0997	 +0.0000	 +414.5935	 8941568	 13828	 335548403	 0
0	 202	 0	 116	 0	 670000	 456475	 +0.04053	 -0.19133	 -9.94687	 -0.3100	 +0.1720	 +0.0579	 -0.09931	 +0.08971	 +2.34943	 +41.68235	 -1.8237	 +1.0373	 -1.9573	 -0.0000092	 -0.0000680	 +244.4066	 +1.0997	 +0.0000	 +414.5935	 8941568	 13828	 335548403	 0
0	 203	 0	 116	 0	 670000	 461475	 +0.09250	 -0.20577	 -9.92453	 -0.3671	 +0.1814	 -0.0163	 -0.09932	 +0.08971	 +2.34909	 +41.68235	 -1.8242	 +1.0384	 -1.9567	 -0.0000092	 -0.0000681	 +244.4164	 +1.0997	 +0.0000	 +414.5935	 8941568	 13828	 335548403	 0
0	 204	 0	 116	 0	 670000	 466476	 +0.06450	 -0.19661	 -9.95149	 -0.2663	 +0.0910	 +0.0171	 -0.09931	 +0.08970	 +2.34876	 +41.68235	 -1.8245	 +1.0395	 -1.9562	 -0.0000091	 -0.0000682	 +244.4261	 +0.9212	 +0.0000	 +414.5935	 8941568	 13828	 335548403	 0
0	 205	 0	 116	 0	 670000	 471475	 +0.03373	 -0.19913	 -9.97545	 -0.2789	 +0.0677	 -0.1136	 -0.09931	 +0.08969	 +2.34841	 +41.68235	 -1.8248	 +1.0404	 -1.9558	 -0.0000091	 -0.0000682	 +244.4359	 +0.9212	 +0.0000	 +414.5935	 8941568	 13828	 335548403	 0
0	 206	 0	 116	 0	 670000	 476493	 +0.06394	 -0.17459	 -9.94372	 -0.3733	 +0.1657	 +0.0141	 -0.09932	 +0.08969	 +2.34808	 +41.68235	 -1.8252	 +1.0414	 -1.9553	 -0.0000090	 -0.0000683	 +244.4457	 +0.9212	 +0.0000	 +414.5935	 8941568	 13828	 335548403	 0
0	 207	 0	 116	 0	 670000	 481615	 +0.05683	 -0.19182	 -9.94575	 -0.4452	 +0.1612	 +0.0296	 -0.09933	 +0.08969	 +2.34774	 +41.68235	 -1.8256	 +1.0424	 -1.9548	 -0.0000090	 -0.0000684	 +244.4555	 +0.9212	 +0.0000	 +414.5935	 8941568	 13828	 335548403	 0
0	 208	 0	 116	 0	 670000	 486746	 +0.07557	 -0.21034	 -9.96150	 -0.2723	 +0.0804	 -0.0072	 -0.09933	 +0.08969	 +2.34741	 +41.68235	 -1.8259	 +1.0435	 -1.9544	 -0.0000089	 -0.0000685	 +244.4653	 +0.9212	 +0.0000	 +415.1111	 8941568	 13828	 335548403	 0
0	 209	 0	 116	 0	 670000	 491745	 +0.08101	 -0.23395	 -9.96428	 -0.4271	 +0.1170	 -0.0236	 -0.09934	 +0.08968	 +2.34707	 +41.68235	 -1.8262	 +1.0447	 -1.9539	 -0.0000089	 -0.0000686	 +244.4750	 +0.9212	 +0.0000	 +415.1111	 8941568	 13828	 335548403	 0
0	 210	 0	 116	 0	 670000	 496475	 +0.05449	 -0.20520	 -9.94622	 -0.3889	 +0.0853	 +0.0797	 -0.09936	 +0.09009	 +2.34648	 +41.68235	 -1.7769	 +1.0338	 -1.7749	 -0.0000097	 -0.0000654	 +224.9341	 +0.9212	 +0.0000	 +415.1111	 8941568	 13828	 335548403	 0
0	 211	 0	 116	 0	 670000	 501475	 +0.08305	 -0.23732	 -9.93503	 -0.3844	 +0.1023	 +0.0143	 -0.09937	 +0.09009	 +2.34614	 +41.68235	 -1.7772	 +1.0350	 -1.7743	 -0.0000097	 -0.0000655	 +224.9430	 +0.9212	 +0.0000	 +415.1111	 8941568	 13828	 335548403	 0
