Message ID	Frame counter	Reserved	Message length	GNSS Week Number	GNSS TOW	Timestamp [us]	Bias AccX [m/s²]	Bias AccY [m/s²	]Bias AccZ [m/s²]	Bias OmgX [°/s]	Bias OmgY [°/s]	Bias OmgZ [°/s]	Cov. Longitude [(deg)²]	Cov. Latitude [(deg)²]	Cov. Altitude [(m)²]	Cov. V_North [(m/s)²]	Cov. V_East [(m/s)²]	Cov. V_Down [(m/s)²]	Cov. Roll [(deg²)]	Cov. Pitch [(deg²)]	Cov. Yaw [(deg²)]	Cov. Bias AccX [(m/s²)²]	Cov. Bias AccY [(m/s²)²]	Cov. Bias AccZ [(m/s²)²]	Cov. Bias OmgX [(deg/s)²]	Cov. Bias OmgY [(deg/s)²]	Cov. Bias OmgZ [(deg/s)²]	Reserved
4	 34	 0	 104	 0	 1571000	 1008469	 +0.4456	 -2.0535	 -0.3936	 -0.8553	 +0.8489	 +3.7143	 7.008215e-14	 5.702605e-14	 1.999215e+00	 3.708891e-02	 2.812012e-02	 1.039588e-02	 3.963772e-06	 4.894406e-06	 8.891274e-06	 4.323756e-06	 2.938080e-06	 1.043781e-06	 9.642502e-10	 9.272202e-10	 1.007969e-09	 0
4	 35	 0	 104	 0	 1572000	 2008469	 +0.4425	 -2.0499	 -0.3914	 -0.8507	 +0.8520	 +3.7149	 7.230121e-14	 5.684216e-14	 1.996903e+00	 3.831505e-02	 2.758722e-02	 1.078880e-02	 4.029821e-06	 4.894820e-06	 8.910602e-06	 4.322064e-06	 2.934424e-06	 1.043651e-06	 9.620501e-10	 9.272813e-10	 1.008721e-09	 0
4	 36	 0	 104	 0	 1573000	 3008462	 +0.4390	 -2.0466	 -0.3892	 -0.8456	 +0.8551	 +3.7153	 7.427746e-14	 5.668729e-14	 1.996281e+00	 3.920174e-02	 2.712173e-02	 1.116266e-02	 4.114161e-06	 4.875129e-06	 8.935583e-06	 4.320083e-06	 2.931001e-06	 1.043561e-06	 9.595965e-10	 9.273915e-10	 1.009516e-09	 0
4	 37	 0	 104	 0	 1574000	 4008469	 +0.4353	 -2.0435	 -0.3872	 -0.8399	 +0.8583	 +3.7155	 7.597158e-14	 5.655680e-14	 1.996937e+00	 3.977736e-02	 2.669950e-02	 1.149219e-02	 4.212388e-06	 4.840141e-06	 8.967923e-06	 4.317867e-06	 2.927720e-06	 1.043496e-06	 9.569661e-10	 9.275368e-10	 1.010354e-09	 0
4	 38	 0	 104	 0	 1575000	 5008463	 +0.4313	 -2.0408	 -0.3852	 -0.8340	 +0.8616	 +3.7155	 7.736893e-14	 5.644655e-14	 1.998459e+00	 4.009382e-02	 2.631274e-02	 1.176529e-02	 4.320701e-06	 4.794917e-06	 9.009412e-06	 4.315476e-06	 2.924481e-06	 1.043443e-06	 9.542327e-10	 9.277061e-10	 1.011238e-09	 0
4	 39	 0	 104	 0	 1576000	 6008469	 +0.4273	 -2.0384	 -0.3834	 -0.8280	 +0.8649	 +3.7154	 7.847662e-14	 5.635297e-14	 2.000470e+00	 4.021687e-02	 2.594914e-02	 1.196741e-02	 4.435781e-06	 4.744410e-06	 9.061924e-06	 4.312968e-06	 2.921183e-06	 1.043386e-06	 9.514605e-10	 9.278913e-10	 1.012173e-09	 0
4	 40	 0	 104	 0	 1577000	 7008469	 +0.4233	 -2.0365	 -0.3818	 -0.8220	 +0.8684	 +3.7152	 7.931924e-14	 5.627270e-14	 2.002625e+00	 4.019982e-02	 2.560088e-02	 1.209523e-02	 4.554557e-06	 4.693133e-06	 9.127671e-06	 4.310397e-06	 2.917724e-06	 1.043308e-06	 9.487037e-10	 9.280872e-10	 1.013161e-09	 0
4	 41	 0	 104	 0	 1578000	 8008469	 +0.4194	 -2.0349	 -0.3802	 -0.8161	 +0.8720	 +3.7149	 7.992882e-14	 5.620305e-14	 2.004653e+00	 4.008216e-02	 2.526640e-02	 1.215783e-02	 4.674328e-06	 4.644387e-06	 9.207998e-06	 4.307800e-06	 2.914019e-06	 1.043194e-06	 9.460001e-10	 9.282884e-10	 1.014203e-09	 0
4	 42	 0	 104	 0	 1579000	 9008469	 +0.4154	 -2.0336	 -0.3788	 -0.8103	 +0.8757	 +3.7145	 8.034236e-14	 5.614164e-14	 2.006349e+00	 3.992434e-02	 2.495379e-02	 1.216429e-02	 4.792729e-06	 4.600773e-06	 9.303883e-06	 4.305199e-06	 2.909995e-06	 1.043032e-06	 9.433754e-10	 9.284908e-10	 1.015297e-09	 0
4	 43	 0	 104	 0	 1580000	 8469	 +0.4115	 -2.0326	 -0.3775	 -0.8046	 +0.8795	 +3.7141	 8.059865e-14	 5.608662e-14	 2.007573e+00	 3.975943e-02	 2.465628e-02	 1.211847e-02	 4.907579e-06	 4.564096e-06	 9.415949e-06	 4.302608e-06	 2.905589e-06	 1.042811e-06	 9.408450e-10	 9.286898e-10	 1.016439e-09	 0
4	 44	 0	 104	 0	 1581000	 1008462	 +0.4077	 -2.0318	 -0.3763	 -0.7991	 +0.8834	 +3.7136	 8.073566e-14	 5.603633e-14	 2.008232e+00	 3.963177e-02	 2.438161e-02	 1.203027e-02	 5.016816e-06	 4.535529e-06	 9.544568e-06	 4.300032e-06	 2.900750e-06	 1.042519e-06	 9.384175e-10	 9.288815e-10	 1.017625e-09	 0
4	 45	 0	 104	 0	 1582000	 2008469	 +0.4039	 -2.0313	 -0.3751	 -0.7938	 +0.8874	 +3.7132	 8.078882e-14	 5.598951e-14	 2.008267e+00	 3.956317e-02	 2.412723e-02	 1.190647e-02	 5.118489e-06	 4.515742e-06	 9.689888e-06	 4.297468e-06	 2.895437e-06	 1.042151e-06	 9.360959e-10	 9.290614e-10	 1.018848e-09	 0
4	 46	 0	 104	 0	 1583000	 3008469	 +0.4003	 -2.0310	 -0.3741	 -0.7888	 +0.8915	 +3.7128	 8.078961e-14	 5.594515e-14	 2.007658e+00	 3.957732e-02	 2.389463e-02	 1.175372e-02	 5.210828e-06	 4.504999e-06	 9.851669e-06	 4.294910e-06	 2.889615e-06	 1.041698e-06	 9.338812e-10	 9.292246e-10	 1.020103e-09	 0
4	 47	 0	 104	 0	 1584000	 4008462	 +0.3961	 -2.0328	 -0.3738	 -0.7835	 +0.8969	 +3.7123	 7.926491e-14	 5.590236e-14	 2.000338e+00	 3.817360e-02	 2.368520e-02	 1.130916e-02	 5.290463e-06	 4.408205e-06	 1.002049e-05	 4.291847e-06	 2.879449e-06	 1.040731e-06	 9.317227e-10	 9.289502e-10	 1.021382e-09	 0
4	 48	 0	 104	 0	 1585000	 5008469	 +0.3903	 -2.0402	 -0.3754	 -0.7780	 +0.9055	 +3.7119	 7.344392e-14	 5.586036e-14	 1.974812e+00	 3.264914e-02	 2.348050e-02	 1.008250e-02	 5.350717e-06	 4.074534e-06	 1.017624e-05	 4.287714e-06	 2.857362e-06	 1.038374e-06	 9.296334e-10	 9.274629e-10	 1.022675e-09	 0
4	 49	 0	 104	 0	 1586000	 6008462	 +0.3861	 -2.0446	 -0.3760	 -0.7737	 +0.9124	 +3.7116	 6.945421e-14	 5.581726e-14	 1.955891e+00	 2.913772e-02	 2.329270e-02	 9.191490e-03	 5.394641e-06	 3.888871e-06	 1.035633e-05	 4.284504e-06	 2.838949e-06	 1.036370e-06	 9.277846e-10	 9.264479e-10	 1.023975e-09	 0
4	 50	 0	 104	 0	 1587000	 7008469	 +0.3826	 -2.0471	 -0.3760	 -0.7702	 +0.9183	 +3.7116	 6.653196e-14	 5.577195e-14	 1.940735e+00	 2.680147e-02	 2.314854e-02	 8.514863e-03	 5.419334e-06	 3.787179e-06	 1.055637e-05	 4.281727e-06	 2.822558e-06	 1.034553e-06	 9.260711e-10	 9.256790e-10	 1.025258e-09	 0
4	 51	 0	 104	 0	 1588000	 8008469	 +0.3796	 -2.0484	 -0.3756	 -0.7670	 +0.9236	 +3.7119	 6.429250e-14	 5.572440e-14	 1.927942e+00	 2.522512e-02	 2.305876e-02	 7.981804e-03	 5.423165e-06	 3.736782e-06	 1.077169e-05	 4.279139e-06	 2.807367e-06	 1.032840e-06	 9.244424e-10	 9.250344e-10	 1.026500e-09	 0
4	 52	 0	 104	 0	 1589000	 9008469	 +0.3774	 -2.0509	 -0.3760	 -0.7649	 +0.9272	 +3.7122	 6.267954e-14	 5.567776e-14	 1.930763e+00	 2.446536e-02	 2.304744e-02	 7.785599e-03	 5.419511e-06	 3.744388e-06	 1.100476e-05	 4.276726e-06	 2.795780e-06	 1.032132e-06	 9.229674e-10	 9.247729e-10	 1.027684e-09	 0
4	 53	 0	 104	 0	 1590000	 8469	 +0.3753	 -2.0532	 -0.3765	 -0.7629	 +0.9306	 +3.7127	 6.138940e-14	 5.563338e-14	 1.936841e+00	 2.404106e-02	 2.309072e-02	 7.689090e-03	 5.398570e-06	 3.767462e-06	 1.124405e-05	 4.274296e-06	 2.786043e-06	 1.031790e-06	 9.215368e-10	 9.245081e-10	 1.028798e-09	 0
4	 54	 0	 104	 0	 1591000	 1008462	 +0.3732	 -2.0550	 -0.3767	 -0.7610	 +0.9340	 +3.7135	 6.031785e-14	 5.559229e-14	 1.942500e+00	 2.380336e-02	 2.317436e-02	 7.619497e-03	 5.357972e-06	 3.795166e-06	 1.148292e-05	 4.271811e-06	 2.777210e-06	 1.031537e-06	 9.201211e-10	 9.241357e-10	 1.029837e-09	 0
4	 55	 0	 104	 0	 1592000	 2008469	 +0.3712	 -2.0561	 -0.3767	 -0.7591	 +0.9375	 +3.7145	 5.942533e-14	 5.555558e-14	 1.947760e+00	 2.369858e-02	 2.328399e-02	 7.568158e-03	 5.299284e-06	 3.825779e-06	 1.171734e-05	 4.269277e-06	 2.769048e-06	 1.031329e-06	 9.187173e-10	 9.236543e-10	 1.030797e-09	 0
4	 56	 0	 104	 0	 1593000	 3008471	 +0.3693	 -2.0568	 -0.3765	 -0.7573	 +0.9410	 +3.7156	 5.868252e-14	 5.552401e-14	 1.952636e+00	 2.368186e-02	 2.341719e-02	 7.522725e-03	 5.224727e-06	 3.858403e-06	 1.194446e-05	 4.266708e-06	 2.761371e-06	 1.031136e-06	 9.173221e-10	 9.230700e-10	 1.031682e-09	 0
4	 57	 0	 104	 0	 1594000	 4008475	 +0.3674	 -2.0570	 -0.3761	 -0.7555	 +0.9446	 +3.7170	 5.806681e-14	 5.549798e-14	 1.957142e+00	 2.373364e-02	 2.356500e-02	 7.485889e-03	 5.136314e-06	 3.892154e-06	 1.216194e-05	 4.264121e-06	 2.754037e-06	 1.030931e-06	 9.159318e-10	 9.223932e-10	 1.032494e-09	 0
4	 58	 0	 104	 0	 1595000	 5008474	 +0.3655	 -2.0567	 -0.3755	 -0.7537	 +0.9482	 +3.7186	 5.756012e-14	 5.547757e-14	 1.961311e+00	 2.382358e-02	 2.371799e-02	 7.454403e-03	 5.036517e-06	 3.926707e-06	 1.236779e-05	 4.261527e-06	 2.746927e-06	 1.030694e-06	 9.145425e-10	 9.216378e-10	 1.033238e-09	 0
4	 59	 0	 104	 0	 1596000	 6008475	 +0.3635	 -2.0560	 -0.3747	 -0.7519	 +0.9518	 +3.7203	 5.714726e-14	 5.546248e-14	 1.965178e+00	 2.393418e-02	 2.387624e-02	 7.425661e-03	 4.927878e-06	 3.961860e-06	 1.256071e-05	 4.258940e-06	 2.739944e-06	 1.030412e-06	 9.131505e-10	 9.208209e-10	 1.033919e-09	 0
4	 60	 0	 104	 0	 1597000	 7008474	 +0.3616	 -2.0549	 -0.3737	 -0.7501	 +0.9554	 +3.7222	 5.681505e-14	 5.545227e-14	 1.968781e+00	 2.404371e-02	 2.403076e-02	 7.398294e-03	 4.813108e-06	 3.997513e-06	 1.274008e-05	 4.256368e-06	 2.733002e-06	 1.030073e-06	 9.117525e-10	 9.199617e-10	 1.034541e-09	 0
4	 61	 0	 104	 0	 1598000	 8008474	 +0.3597	 -2.0534	 -0.3726	 -0.7482	 +0.9590	 +3.7243	 5.655190e-14	 5.544629e-14	 1.972160e+00	 2.414060e-02	 2.418143e-02	 7.371425e-03	 4.694833e-06	 4.033563e-06	 1.290577e-05	 4.253816e-06	 2.726033e-06	 1.029669e-06	 9.103469e-10	 9.190799e-10	 1.035111e-09	 0
4	 62	 0	 104	 0	 1599000	 9008474	 +0.3578	 -2.0516	 -0.3713	 -0.7463	 +0.9625	 +3.7264	 5.634738e-14	 5.544388e-14	 1.975351e+00	 2.422198e-02	 2.433333e-02	 7.346028e-03	 4.575511e-06	 4.069795e-06	 1.305808e-05	 4.251292e-06	 2.718978e-06	 1.029194e-06	 9.089320e-10	 9.181939e-10	 1.035632e-09	 0
4	 63	 0	 104	 0	 1600000	 8474	 +0.3559	 -2.0494	 -0.3699	 -0.7443	 +0.9660	 +3.7286	 5.619224e-14	 5.544451e-14	 1.978396e+00	 2.427598e-02	 2.447929e-02	 7.321766e-03	 4.457398e-06	 4.105902e-06	 1.319770e-05	 4.248796e-06	 2.711787e-06	 1.028645e-06	 9.075075e-10	 9.173202e-10	 1.036112e-09	 0
4	 64	 0	 104	 0	 1601000	 1008474	 +0.3541	 -2.0469	 -0.3684	 -0.7423	 +0.9693	 +3.7308	 5.607797e-14	 5.544762e-14	 1.981322e+00	 2.429486e-02	 2.462133e-02	 7.292883e-03	 4.342753e-06	 4.141609e-06	 1.332601e-05	 4.246333e-06	 2.704423e-06	 1.028020e-06	 9.060752e-10	 9.164741e-10	 1.036557e-09	 0
4	 65	 0	 104	 0	 1602000	 2008475	 +0.3522	 -2.0442	 -0.3668	 -0.7403	 +0.9726	 +3.7330	 5.599700e-14	 5.545277e-14	 1.984149e+00	 2.428635e-02	 2.475526e-02	 7.268383e-03	 4.233395e-06	 4.176276e-06	 1.344451e-05	 4.243904e-06	 2.696854e-06	 1.027318e-06	 9.046368e-10	 9.156673e-10	 1.036975e-09	 0
4	 66	 0	 104	 0	 1603000	 3008474	 +0.3503	 -2.0412	 -0.3650	 -0.7382	 +0.9758	 +3.7352	 5.594280e-14	 5.545941e-14	 1.986919e+00	 2.424869e-02	 2.487921e-02	 7.248446e-03	 4.130928e-06	 4.209434e-06	 1.355420e-05	 4.241512e-06	 2.689055e-06	 1.026542e-06	 9.031950e-10	 9.149075e-10	 1.037371e-09	 0
