Message ID	Frame counter	Reserved	Message length	GNSS Week Number	GNSS TOW	Timestamp [us]	Bias AccX [m/s²]	Bias AccY [m/s²	]Bias AccZ [m/s²]	Bias OmgX [°/s]	Bias OmgY [°/s]	Bias OmgZ [°/s]	Cov. Longitude [(deg)²]	Cov. Latitude [(deg)²]	Cov. Altitude [(m)²]	Cov. V_North [(m/s)²]	Cov. V_East [(m/s)²]	Cov. V_Down [(m/s)²]	Cov. Roll [(deg²)]	Cov. Pitch [(deg²)]	Cov. Yaw [(deg²)]	Cov. Bias AccX [(m/s²)²]	Cov. Bias AccY [(m/s²)²]	Cov. Bias AccZ [(m/s²)²]	Cov. Bias OmgX [(deg/s)²]	Cov. Bias OmgY [(deg/s)²]	Cov. Bias OmgZ [(deg/s)²]	Reserved
4	 157	 0	 104	 0	 670000	 1476	 -1.0001	 -1.0629	 -0.3628	 -0.6385	 -0.2205	 +3.8195	 5.630578e-14	 5.588500e-14	 1.027674e+01	 2.533482e-02	 2.526493e-02	 2.151960e-03	 3.388321e-06	 3.337813e-06	 3.506678e-05	 1.701993e-05	 1.209750e-05	 4.515433e-07	 1.022484e-09	 9.138748e-10	 7.787158e-10	 0
4	 158	 0	 104	 0	 671000	 1001475	 -1.0013	 -1.0499	 -0.3654	 -0.6383	 -0.2174	 +3.8204	 5.630271e-14	 5.588298e-14	 6.925931e+00	 2.531975e-02	 2.526590e-02	 1.863644e-03	 3.391153e-06	 3.336114e-06	 3.543121e-05	 1.701175e-05	 1.203854e-05	 4.500683e-07	 1.023030e-09	 9.132322e-10	 7.799454e-10	 0
4	 159	 0	 104	 0	 672000	 2001470	 -1.0017	 -1.0434	 -0.3667	 -0.6383	 -0.2159	 +3.8208	 5.630004e-14	 5.588113e-14	 5.277628e+00	 2.530659e-02	 2.527060e-02	 1.723138e-03	 3.393231e-06	 3.334809e-06	 3.579757e-05	 1.700385e-05	 1.200827e-05	 4.496609e-07	 1.023576e-09	 9.131710e-10	 7.812123e-10	 0
4	 160	 0	 104	 0	 673000	 3001470	 -1.0017	 -1.0395	 -0.3675	 -0.6383	 -0.2151	 +3.8211	 5.629765e-14	 5.587945e-14	 4.304322e+00	 2.529917e-02	 2.528293e-02	 1.641444e-03	 3.394494e-06	 3.333823e-06	 3.616489e-05	 1.699592e-05	 1.198941e-05	 4.496652e-07	 1.024117e-09	 9.133374e-10	 7.824916e-10	 0
4	 161	 0	 104	 0	 674000	 4001470	 -1.0016	 -1.0370	 -0.3681	 -0.6383	 -0.2147	 +3.8213	 5.629546e-14	 5.587804e-14	 3.666818e+00	 2.529054e-02	 2.529468e-02	 1.589313e-03	 3.395062e-06	 3.333202e-06	 3.653244e-05	 1.698787e-05	 1.197628e-05	 4.498636e-07	 1.024652e-09	 9.136145e-10	 7.837739e-10	 0
4	 162	 0	 104	 0	 675000	 5001470	 -1.0013	 -1.0351	 -0.3685	 -0.6383	 -0.2144	 +3.8215	 5.629350e-14	 5.587693e-14	 3.220522e+00	 2.528405e-02	 2.530927e-02	 1.554166e-03	 3.395191e-06	 3.333094e-06	 3.689958e-05	 1.697967e-05	 1.196646e-05	 4.501621e-07	 1.025177e-09	 9.139508e-10	 7.850549e-10	 0
4	 163	 0	 104	 0	 676000	 6001470	 -1.0011	 -1.0338	 -0.3688	 -0.6384	 -0.2142	 +3.8216	 5.629179e-14	 5.587623e-14	 2.893378e+00	 2.528089e-02	 2.532676e-02	 1.529721e-03	 3.394640e-06	 3.333234e-06	 3.726588e-05	 1.697129e-05	 1.195876e-05	 4.505136e-07	 1.025690e-09	 9.143207e-10	 7.863323e-10	 0
4	 164	 0	 104	 0	 677000	 7001470	 -1.0008	 -1.0328	 -0.3690	 -0.6384	 -0.2140	 +3.8217	 5.629025e-14	 5.587591e-14	 2.645437e+00	 2.527574e-02	 2.534154e-02	 1.512636e-03	 3.393527e-06	 3.333636e-06	 3.763107e-05	 1.696274e-05	 1.195251e-05	 4.508908e-07	 1.026191e-09	 9.147107e-10	 7.876047e-10	 0
4	 165	 0	 104	 0	 678000	 8001470	 -1.0005	 -1.0320	 -0.3692	 -0.6385	 -0.2140	 +3.8218	 5.628896e-14	 5.587602e-14	 2.452755e+00	 2.527596e-02	 2.535970e-02	 1.500801e-03	 3.391911e-06	 3.334270e-06	 3.799487e-05	 1.695400e-05	 1.194730e-05	 4.512769e-07	 1.026679e-09	 9.151127e-10	 7.888712e-10	 0
4	 166	 0	 104	 0	 679000	 9001470	 -1.0002	 -1.0314	 -0.3694	 -0.6386	 -0.2139	 +3.8218	 5.628797e-14	 5.587654e-14	 2.300110e+00	 2.527508e-02	 2.537554e-02	 1.492723e-03	 3.389886e-06	 3.335122e-06	 3.835717e-05	 1.694504e-05	 1.194288e-05	 4.516607e-07	 1.027153e-09	 9.155219e-10	 7.901314e-10	 0
4	 167	 0	 104	 0	 680000	 1470	 -0.9999	 -1.0310	 -0.3695	 -0.6387	 -0.2138	 +3.8219	 5.628717e-14	 5.587747e-14	 2.177346e+00	 2.527367e-02	 2.538772e-02	 1.487538e-03	 3.387549e-06	 3.336157e-06	 3.871813e-05	 1.693585e-05	 1.193907e-05	 4.520344e-07	 1.027615e-09	 9.159354e-10	 7.913858e-10	 0
4	 168	 0	 104	 0	 681000	 1001470	 -0.9996	 -1.0306	 -0.3696	 -0.6388	 -0.2138	 +3.8220	 5.628650e-14	 5.587871e-14	 2.077430e+00	 2.527454e-02	 2.539931e-02	 1.484731e-03	 3.385013e-06	 3.337386e-06	 3.907792e-05	 1.692642e-05	 1.193574e-05	 4.523922e-07	 1.028063e-09	 9.163515e-10	 7.926349e-10	 0
4	 169	 0	 104	 0	 682000	 2001470	 -0.9993	 -1.0304	 -0.3696	 -0.6390	 -0.2138	 +3.8220	 5.628604e-14	 5.588021e-14	 1.995336e+00	 2.527402e-02	 2.540564e-02	 1.483723e-03	 3.382379e-06	 3.338808e-06	 3.943672e-05	 1.691673e-05	 1.193280e-05	 4.527299e-07	 1.028498e-09	 9.167691e-10	 7.938791e-10	 0
4	 170	 0	 104	 0	 683000	 3001470	 -0.9990	 -1.0302	 -0.3697	 -0.6391	 -0.2137	 +3.8221	 5.628571e-14	 5.588186e-14	 1.927372e+00	 2.527566e-02	 2.541052e-02	 1.484171e-03	 3.380061e-06	 3.340673e-06	 3.979504e-05	 1.690680e-05	 1.193020e-05	 4.530441e-07	 1.028921e-09	 9.171863e-10	 7.951202e-10	 0
4	 171	 0	 104	 0	 684000	 4001470	 -0.9988	 -1.0300	 -0.3697	 -0.6393	 -0.2137	 +3.8222	 5.628550e-14	 5.588363e-14	 1.870765e+00	 2.527836e-02	 2.541313e-02	 1.485747e-03	 3.377743e-06	 3.342648e-06	 4.015322e-05	 1.689663e-05	 1.192788e-05	 4.533323e-07	 1.029330e-09	 9.176012e-10	 7.963591e-10	 0
4	 172	 0	 104	 0	 685000	 5001470	 -0.9985	 -1.0299	 -0.3697	 -0.6394	 -0.2137	 +3.8222	 5.628535e-14	 5.588542e-14	 1.823394e+00	 2.528051e-02	 2.541177e-02	 1.488251e-03	 3.375526e-06	 3.344760e-06	 4.051162e-05	 1.688620e-05	 1.192580e-05	 4.535927e-07	 1.029726e-09	 9.180140e-10	 7.975968e-10	 0
4	 173	 0	 104	 0	 686000	 6001470	 -0.9983	 -1.0298	 -0.3697	 -0.6396	 -0.2137	 +3.8223	 5.628532e-14	 5.588718e-14	 1.783605e+00	 2.528297e-02	 2.540720e-02	 1.491455e-03	 3.373444e-06	 3.346976e-06	 4.087068e-05	 1.687549e-05	 1.192391e-05	 4.538234e-07	 1.030109e-09	 9.184247e-10	 7.988346e-10	 0
4	 174	 0	 104	 0	 687000	 7001470	 -0.9981	 -1.0298	 -0.3697	 -0.6399	 -0.2136	 +3.8223	 5.628532e-14	 5.588882e-14	 1.750092e+00	 2.528629e-02	 2.540032e-02	 1.495135e-03	 3.371533e-06	 3.349280e-06	 4.123084e-05	 1.686448e-05	 1.192218e-05	 4.540231e-07	 1.030480e-09	 9.188336e-10	 8.000736e-10	 0
4	 175	 0	 104	 0	 688000	 8001470	 -0.9980	 -1.0297	 -0.3697	 -0.6401	 -0.2136	 +3.8224	 5.628536e-14	 5.589026e-14	 1.721807e+00	 2.528976e-02	 2.538935e-02	 1.499135e-03	 3.369809e-06	 3.351654e-06	 4.159265e-05	 1.685317e-05	 1.192056e-05	 4.541911e-07	 1.030840e-09	 9.192407e-10	 8.013148e-10	 0
4	 176	 0	 104	 0	 689000	 9001470	 -0.9978	 -1.0297	 -0.3696	 -0.6403	 -0.2135	 +3.8224	 5.628547e-14	 5.589149e-14	 1.697902e+00	 2.529464e-02	 2.537769e-02	 1.503412e-03	 3.368263e-06	 3.354086e-06	 4.195678e-05	 1.684153e-05	 1.191904e-05	 4.543269e-07	 1.031190e-09	 9.196461e-10	 8.025599e-10	 0
4	 177	 0	 104	 0	 690000	 1470	 -0.9977	 -1.0297	 -0.3695	 -0.6406	 -0.2135	 +3.8225	 5.628562e-14	 5.589243e-14	 1.677687e+00	 2.530005e-02	 2.536421e-02	 1.507754e-03	 3.366873e-06	 3.356532e-06	 4.232349e-05	 1.682955e-05	 1.191758e-05	 4.544298e-07	 1.031530e-09	 9.200503e-10	 8.038098e-10	 0
4	 178	 0	 104	 0	 691000	 1001470	 -0.9977	 -1.0297	 -0.3694	 -0.6409	 -0.2134	 +3.8225	 5.628576e-14	 5.589304e-14	 1.660591e+00	 2.530448e-02	 2.534927e-02	 1.512203e-03	 3.365876e-06	 3.359258e-06	 4.269335e-05	 1.681723e-05	 1.191617e-05	 4.545002e-07	 1.031861e-09	 9.204522e-10	 8.050655e-10	 0
4	 179	 0	 104	 0	 692000	 2001470	 -0.9977	 -1.0297	 -0.3693	 -0.6412	 -0.2134	 +3.8226	 5.628596e-14	 5.589334e-14	 1.646139e+00	 2.530855e-02	 2.533392e-02	 1.516658e-03	 3.365048e-06	 3.362032e-06	 4.306664e-05	 1.680459e-05	 1.191479e-05	 4.545380e-07	 1.032183e-09	 9.208501e-10	 8.063274e-10	 0
4	 180	 0	 104	 0	 693000	 3001470	 -0.9973	 -1.0298	 -0.3693	 -0.6414	 -0.2134	 +3.8226	 5.628659e-14	 5.589343e-14	 1.635529e+00	 2.531606e-02	 2.532014e-02	 1.532600e-03	 3.364318e-06	 3.365214e-06	 4.344350e-05	 1.679695e-05	 1.191371e-05	 4.552595e-07	 1.032669e-09	 9.212562e-10	 8.075957e-10	 0
4	 181	 0	 104	 0	 694000	 4001470	 -0.9970	 -1.0299	 -0.3693	 -0.6416	 -0.2133	 +3.8226	 5.628735e-14	 5.589317e-14	 1.626844e+00	 2.532227e-02	 2.530512e-02	 1.548346e-03	 3.363631e-06	 3.368300e-06	 4.382382e-05	 1.678905e-05	 1.191266e-05	 4.559465e-07	 1.033144e-09	 9.216599e-10	 8.088695e-10	 0
4	 182	 0	 104	 0	 695000	 5001470	 -0.9967	 -1.0299	 -0.3693	 -0.6418	 -0.2133	 +3.8227	 5.628813e-14	 5.589254e-14	 1.619808e+00	 2.532704e-02	 2.529044e-02	 1.564092e-03	 3.362995e-06	 3.371296e-06	 4.420759e-05	 1.678087e-05	 1.191163e-05	 4.565983e-07	 1.033610e-09	 9.220614e-10	 8.101487e-10	 0
4	 183	 0	 104	 0	 696000	 6001470	 -0.9965	 -1.0300	 -0.3692	 -0.6421	 -0.2133	 +3.8227	 5.628900e-14	 5.589160e-14	 1.614186e+00	 2.533090e-02	 2.527682e-02	 1.579663e-03	 3.362393e-06	 3.374173e-06	 4.459458e-05	 1.677238e-05	 1.191060e-05	 4.572145e-07	 1.034065e-09	 9.224610e-10	 8.114324e-10	 0
4	 184	 0	 104	 0	 697000	 7001470	 -0.9962	 -1.0301	 -0.3692	 -0.6423	 -0.2132	 +3.8227	 5.628986e-14	 5.589038e-14	 1.609775e+00	 2.533328e-02	 2.526446e-02	 1.595166e-03	 3.361818e-06	 3.376915e-06	 4.498467e-05	 1.676356e-05	 1.190955e-05	 4.577948e-07	 1.034511e-09	 9.228590e-10	 8.127200e-10	 0
4	 185	 0	 104	 0	 698000	 8001470	 -0.9960	 -1.0302	 -0.3691	 -0.6426	 -0.2132	 +3.8228	 5.629063e-14	 5.588893e-14	 1.606401e+00	 2.533709e-02	 2.525637e-02	 1.610461e-03	 3.361263e-06	 3.379498e-06	 4.537770e-05	 1.675440e-05	 1.190848e-05	 4.583391e-07	 1.034948e-09	 9.232553e-10	 8.140109e-10	 0
4	 186	 0	 104	 0	 699000	 9001470	 -0.9959	 -1.0302	 -0.3691	 -0.6428	 -0.2132	 +3.8228	 5.629144e-14	 5.588740e-14	 1.603917e+00	 2.533979e-02	 2.525032e-02	 1.625552e-03	 3.360836e-06	 3.382062e-06	 4.577355e-05	 1.674491e-05	 1.190737e-05	 4.588473e-07	 1.035376e-09	 9.236493e-10	 8.153041e-10	 0
4	 187	 0	 104	 0	 700000	 1470	 -0.9957	 -1.0303	 -0.3690	 -0.6431	 -0.2131	 +3.8228	 5.629228e-14	 5.588579e-14	 1.602193e+00	 2.534176e-02	 2.524660e-02	 1.640488e-03	 3.360493e-06	 3.384528e-06	 4.617203e-05	 1.673509e-05	 1.190622e-05	 4.593194e-07	 1.035793e-09	 9.240393e-10	 8.165992e-10	 0
