Message ID	Frame counter	Reserved	Message length	GNSS Week Number	GNSS TOW	Timestamp [us]	AccX [m/s²]	AccY [m/s²]	AccZ [m/s²]	OmgX [deg/s]	OmgY [def/s]	OmgZ [def/s]	Roll [deg]	Pitch [deg]	Yaw [deg]	IMU Temp [°C]	Vx/Vnorth [m/s]	Vy/Veast [m/s]	Vz/Vdown [m/s]	Longitude [deg]	Latitude [deg]	Altitude/MSL [m]	Mag. heading [deg]	Odometer [m/s]	Pressure altitude [m]	System status	Additional system status	AHRS status	Reserved
0	 118	 0	 116	 0	 854000	 4357475	 +0.03498	 +0.12892	 +9.65211	 -0.3574	 +0.0832	 -0.0514	 -3.07805	 -0.13609	 +1.49730	 +42.76471	 +15.4578	 +14.9753	 -14.8683	 +0.0002027	 +0.0011222	 +146.2275	 -1.5794	 +0.0000	 +413.3873	 9990144	 13828	 335548403	 0
0	 119	 0	 116	 0	 854000	 4362475	 +0.03282	 +0.08221	 +9.64574	 -0.3372	 +0.1359	 -0.0042	 -3.07808	 -0.13614	 +1.49763	 +42.67059	 +15.4599	 +14.9855	 -14.8682	 +0.0002034	 +0.0011229	 +146.3019	 -1.5794	 +0.0000	 +413.3873	 9990144	 13828	 335548403	 0
0	 120	 0	 116	 0	 854000	 4367475	 +0.03879	 +0.06471	 +9.66797	 -0.4101	 +0.1533	 +0.0491	 -3.07812	 -0.13619	 +1.49796	 +42.67059	 +15.4619	 +14.9957	 -14.8682	 +0.0002041	 +0.0011236	 +146.3762	 -1.5794	 +0.0000	 +413.3873	 9990144	 13828	 335548403	 0
0	 121	 0	 116	 0	 854000	 4372475	 +0.02132	 +0.08592	 +9.66310	 -0.3066	 +0.1502	 -0.0027	 -3.07814	 -0.13623	 +1.49829	 +42.67059	 +15.4639	 +15.0058	 -14.8682	 +0.0002047	 +0.0011243	 +146.4506	 -1.5794	 +0.0000	 +413.3873	 9990144	 13828	 335548403	 0
0	 122	 0	 116	 0	 854000	 4377475	 +0.02699	 +0.13507	 +9.71241	 -0.3358	 +0.0898	 -0.0179	 -3.07817	 -0.13627	 +1.49863	 +42.67059	 +15.4663	 +15.0160	 -14.8684	 +0.0002054	 +0.0011250	 +146.5249	 -1.5794	 +0.0000	 +413.3873	 9990144	 13828	 335548403	 0
0	 123	 0	 116	 0	 854000	 4382475	 +0.04695	 +0.08858	 +9.71184	 -0.3949	 +0.1383	 -0.0056	 -3.07820	 -0.13632	 +1.49896	 +42.57647	 +15.4684	 +15.0263	 -14.8686	 +0.0002061	 +0.0011257	 +146.5992	 -1.5794	 +0.0000	 +413.3873	 9990144	 13828	 335548403	 0
0	 124	 0	 116	 0	 854000	 4387476	 +0.04543	 +0.11234	 +9.73737	 -0.3580	 +0.1343	 +0.0765	 -3.07823	 -0.13636	 +1.49928	 +42.76471	 +15.4706	 +15.0365	 -14.8690	 +0.0002068	 +0.0011264	 +146.6736	 -1.3184	 +0.0000	 +413.3873	 9990144	 13828	 335548403	 0
0	 125	 0	 116	 0	 854000	 4392475	 +0.02464	 +0.10555	 +9.67192	 -0.3303	 +0.1568	 -0.0439	 -3.07826	 -0.13641	 +1.49962	 +42.76471	 +15.4727	 +15.0467	 -14.8690	 +0.0002074	 +0.0011271	 +146.7479	 -1.3184	 +0.0000	 +413.3873	 9990144	 13828	 335548403	 0
0	 126	 0	 116	 0	 854000	 4397475	 +0.02957	 +0.10606	 +9.71335	 -0.3329	 +0.1113	 -0.0468	 -3.07829	 -0.13645	 +1.49996	 +42.76471	 +15.4749	 +15.0569	 -14.8692	 +0.0002081	 +0.0011278	 +146.8223	 -1.3184	 +0.0000	 +413.3873	 9990144	 13828	 335548403	 0
0	 127	 0	 116	 0	 854000	 4402475	 +0.04284	 +0.10369	 +9.67126	 -0.3054	 +0.1622	 -0.0317	 -3.07831	 -0.13650	 +1.50029	 +42.67059	 +15.4771	 +15.0671	 -14.8692	 +0.0002088	 +0.0011285	 +146.8966	 -1.3184	 +0.0000	 +413.3873	 9990144	 13828	 335548403	 0
0	 128	 0	 116	 0	 854000	 4407475	 +0.05217	 +0.06904	 +9.66449	 -0.4115	 +0.1643	 -0.0117	 -3.07835	 -0.13655	 +1.50063	 +42.67059	 +15.4791	 +15.0774	 -14.8692	 +0.0002095	 +0.0011292	 +146.9710	 -1.3184	 +0.0000	 +414.5077	 9990144	 13828	 335548403	 0
0	 129	 0	 116	 0	 854000	 4412474	 +0.03762	 +0.09033	 +9.66114	 -0.3915	 +0.1524	 +0.0187	 -3.07838	 -0.13660	 +1.50096	 +42.67059	 +15.4812	 +15.0876	 -14.8691	 +0.0002101	 +0.0011299	 +147.0453	 -1.3184	 +0.0000	 +414.5077	 9990144	 13828	 335548403	 0
0	 130	 0	 116	 0	 854000	 4417475	 +0.02048	 +0.10887	 +9.72545	 -0.3359	 +0.1189	 -0.0362	 -3.07841	 -0.13664	 +1.50129	 +42.67059	 +15.4833	 +15.0978	 -14.8694	 +0.0002108	 +0.0011306	 +147.1197	 -1.3184	 +0.0000	 +414.5077	 9990144	 13828	 335548403	 0
0	 131	 0	 116	 0	 854000	 4422475	 +0.03418	 +0.11799	 +9.67576	 -0.3085	 -0.0005	 +0.0354	 -3.07844	 -0.13667	 +1.50162	 +42.76471	 +15.4856	 +15.1080	 -14.8694	 +0.0002115	 +0.0011313	 +147.1940	 -1.3184	 +0.0000	 +414.5077	 9990144	 13828	 335548403	 0
0	 132	 0	 116	 0	 854000	 4427475	 +0.05995	 +0.09010	 +9.72531	 -0.3389	 +0.1647	 +0.0322	 -3.07846	 -0.13672	 +1.50195	 +42.67059	 +15.4876	 +15.1184	 -14.8697	 +0.0002122	 +0.0011320	 +147.2684	 -1.0256	 +0.0000	 +414.5077	 9990144	 13828	 335548403	 0
0	 133	 0	 116	 0	 854000	 4432475	 +0.04514	 +0.08667	 +9.74125	 -0.3086	 +0.1361	 -0.0408	 -3.07849	 -0.13677	 +1.50229	 +42.71765	 +15.4897	 +15.1287	 -14.8700	 +0.0002129	 +0.0011327	 +147.3427	 -1.0256	 +0.0000	 +414.5077	 9990144	 13828	 335548403	 0
0	 134	 0	 116	 0	 854000	 4437475	 +0.05491	 +0.07134	 +9.64361	 -0.3836	 +0.1346	 -0.0618	 -3.07852	 -0.13681	 +1.50263	 +42.71765	 +15.4917	 +15.1390	 -14.8699	 +0.0002135	 +0.0011334	 +147.4171	 -1.0256	 +0.0000	 +414.5077	 9990144	 13828	 335548403	 0
0	 135	 0	 116	 0	 854000	 4442475	 +0.04023	 +0.08901	 +9.71283	 -0.3583	 +0.1310	 +0.0810	 -3.07855	 -0.13686	 +1.50295	 +42.62353	 +15.4938	 +15.1493	 -14.8701	 +0.0002142	 +0.0011341	 +147.4914	 -1.0256	 +0.0000	 +414.5077	 9990144	 13828	 335548403	 0
0	 136	 0	 116	 0	 854000	 4447475	 +0.02238	 +0.16163	 +9.68393	 -0.3672	 +0.0898	 +0.0689	 -3.07858	 -0.13690	 +1.50328	 +42.62353	 +15.4962	 +15.1595	 -14.8702	 +0.0002149	 +0.0011348	 +147.5658	 -1.0255	 +0.0000	 +414.5077	 9990144	 13828	 335548403	 0
0	 137	 0	 116	 0	 854000	 4452476	 +0.04162	 +0.07661	 +9.67614	 -0.4101	 +0.1580	 +0.0111	 -3.07862	 -0.13694	 +1.50361	 +42.62353	 +15.4982	 +15.1698	 -14.8702	 +0.0002156	 +0.0011355	 +147.6401	 -1.0255	 +0.0000	 +414.5077	 9990144	 13828	 335548403	 0
0	 138	 0	 116	 0	 854000	 4457475	 +0.01191	 +0.08643	 +9.70471	 -0.3372	 +0.1510	 +0.0581	 -3.07865	 -0.13699	 +1.50394	 +42.71765	 +15.5003	 +15.1799	 -14.8704	 +0.0002163	 +0.0011362	 +147.7145	 -1.0255	 +0.0000	 +414.5077	 9990144	 13828	 335548403	 0
0	 139	 0	 116	 0	 854000	 4462475	 +0.05911	 +0.13100	 +9.69544	 -0.3527	 +0.1385	 -0.0073	 -3.07868	 -0.13704	 +1.50427	 +42.62353	 +15.5026	 +15.1903	 -14.8705	 +0.0002169	 +0.0011369	 +147.7888	 -1.0255	 +0.0000	 +414.5077	 9990144	 13828	 335548403	 0
0	 140	 0	 116	 0	 854000	 4467476	 +0.05986	 +0.09445	 +9.69313	 -0.3108	 +0.0464	 -0.0196	 -3.07870	 -0.13707	 +1.50461	 +42.71765	 +15.5047	 +15.2007	 -14.8706	 +0.0002176	 +0.0011376	 +147.8632	 -1.2868	 +0.0000	 +414.5077	 9990144	 13828	 335548403	 0
0	 141	 0	 116	 0	 854000	 4472475	 +0.04575	 +0.09233	 +9.64914	 -0.3269	 +0.1968	 +0.0656	 -3.07873	 -0.13712	 +1.50493	 +42.62353	 +15.5067	 +15.2109	 -14.8705	 +0.0002183	 +0.0011383	 +147.9375	 -1.2868	 +0.0000	 +414.5077	 9990144	 13828	 335548403	 0
0	 142	 0	 116	 0	 854000	 4477498	 +0.04090	 +0.11467	 +9.67760	 -0.4056	 +0.1611	 -0.0254	 -3.07876	 -0.13717	 +1.50527	 +42.62353	 +15.5089	 +15.2212	 -14.8705	 +0.0002190	 +0.0011390	 +148.0119	 -1.2868	 +0.0000	 +414.5077	 9990144	 13828	 335548403	 0
0	 143	 0	 116	 0	 854000	 4482746	 +0.04651	 +0.10415	 +9.62541	 -0.3522	 +0.1726	 +0.0247	 -3.07879	 -0.13722	 +1.50560	 +42.57647	 +15.5111	 +15.2315	 -14.8703	 +0.0002197	 +0.0011397	 +148.0862	 -1.2868	 +0.0000	 +414.5077	 9990144	 13828	 335548403	 0
0	 144	 0	 116	 0	 854000	 4487745	 +0.04972	 +0.10855	 +9.72384	 -0.2948	 +0.1822	 -0.0059	 -3.07882	 -0.13727	 +1.50593	 +42.57647	 +15.5132	 +15.2418	 -14.8705	 +0.0002204	 +0.0011404	 +148.1606	 -1.2868	 +0.0000	 +413.9043	 9990144	 13828	 335548403	 0
0	 145	 0	 116	 0	 854000	 4492711	 +0.03617	 +0.10841	 +9.69394	 -0.3368	 +0.1652	 +0.0308	 -3.07885	 -0.13732	 +1.50626	 +42.62353	 +15.5154	 +15.2521	 -14.8706	 +0.0002210	 +0.0011411	 +148.2349	 -1.2868	 +0.0000	 +413.9043	 9990144	 13828	 335548403	 0
0	 146	 0	 116	 0	 854000	 4497475	 +0.02199	 +0.07416	 +9.67726	 -0.3212	 +0.2301	 +0.0670	 -3.07649	 -0.13445	 +1.50865	 +42.62353	 +14.8632	 +14.9650	 -14.9757	 +0.0002035	 +0.0010711	 +146.4741	 -1.2868	 +0.0000	 +413.9043	 9990144	 13828	 335548403	 0
0	 147	 0	 116	 0	 854000	 4502475	 +0.02175	 +0.09023	 +9.64868	 -0.4355	 +0.1596	 +0.0720	 -3.07653	 -0.13450	 +1.50898	 +42.62353	 +14.8651	 +14.9751	 -14.9756	 +0.0002042	 +0.0010718	 +146.5490	 -1.2872	 +0.0000	 +413.9043	 9990144	 13828	 335548403	 0
0	 148	 0	 116	 0	 854000	 4507475	 +0.04527	 +0.11800	 +9.70598	 -0.2886	 +0.1580	 -0.0499	 -3.07655	 -0.13455	 +1.50932	 +42.62353	 +14.8672	 +14.9853	 -14.9758	 +0.0002048	 +0.0010725	 +146.6238	 -1.1170	 +0.0000	 +413.9043	 9990144	 13828	 335548403	 0
0	 149	 0	 116	 0	 854000	 4512475	 +0.06022	 +0.13769	 +9.75425	 -0.3870	 +0.1141	 +0.0294	 -3.07658	 -0.13459	 +1.50965	 +42.62353	 +14.8693	 +14.9956	 -14.9763	 +0.0002055	 +0.0010731	 +146.6987	 -1.1170	 +0.0000	 +413.9043	 9990144	 13828	 335548403	 0
0	 150	 0	 116	 0	 854000	 4517476	 +0.03224	 +0.12977	 +9.71031	 -0.3106	 +0.1184	 +0.0445	 -3.07661	 -0.13464	 +1.50997	 +42.62353	 +14.8714	 +15.0057	 -14.9765	 +0.0002062	 +0.0010738	 +146.7736	 -1.1170	 +0.0000	 +413.9043	 9990144	 13828	 335548403	 0
0	 151	 0	 116	 0	 854000	 4522475	 +0.03199	 +0.10035	 +9.71090	 -0.3282	 +0.0916	 -0.0620	 -3.07664	 -0.13468	 +1.51031	 +42.71765	 +14.8733	 +15.0159	 -14.9767	 +0.0002068	 +0.0010745	 +146.8485	 -1.1170	 +0.0000	 +413.9043	 9990144	 13828	 335548403	 0
0	 152	 0	 116	 0	 854000	 4527475	 +0.02575	 +0.08788	 +9.69734	 -0.4053	 +0.2564	 -0.0087	 -3.07667	 -0.13473	 +1.51065	 +42.62353	 +14.8752	 +15.0260	 -14.9769	 +0.0002075	 +0.0010752	 +146.9234	 -1.1170	 +0.0000	 +413.3873	 9990144	 13828	 335548403	 0
0	 153	 0	 116	 0	 854000	 4532475	 +0.03044	 +0.12322	 +9.71435	 -0.3252	 +0.0882	 +0.0323	 -3.07670	 -0.13478	 +1.51098	 +42.71765	 +14.8772	 +15.0361	 -14.9771	 +0.0002082	 +0.0010758	 +146.9983	 -1.1170	 +0.0000	 +413.3873	 9990144	 13828	 335548403	 0
0	 154	 0	 116	 0	 854000	 4537476	 +0.01225	 +0.11021	 +9.71097	 -0.2886	 +0.1118	 +0.0185	 -3.07672	 -0.13482	 +1.51131	 +42.62353	 +14.8792	 +15.0461	 -14.9774	 +0.0002089	 +0.0010765	 +147.0732	 -1.1170	 +0.0000	 +413.3873	 9990144	 13828	 335548403	 0
0	 155	 0	 116	 0	 854000	 4542475	 +0.02064	 +0.13021	 +9.67910	 -0.3478	 +0.1388	 -0.0072	 -3.07675	 -0.13486	 +1.51164	 +42.62353	 +14.8813	 +15.0562	 -14.9775	 +0.0002096	 +0.0010772	 +147.1480	 -1.1170	 +0.0000	 +413.3873	 9990144	 13828	 335548403	 0
0	 156	 0	 116	 0	 854000	 4547475	 +0.04202	 +0.09428	 +9.67720	 -0.3120	 +0.1140	 +0.0397	 -3.07677	 -0.13491	 +1.51197	 +42.71765	 +14.8832	 +15.0664	 -14.9775	 +0.0002102	 +0.0010778	 +147.2229	 -1.3645	 +0.0000	 +413.3873	 9990144	 13828	 335548403	 0
0	 157	 0	 116	 0	 854000	 4552475	 +0.04965	 +0.11665	 +9.71374	 -0.3401	 +0.1282	 +0.0338	 -3.07680	 -0.13495	 +1.51230	 +42.71765	 +14.8852	 +15.0766	 -14.9778	 +0.0002109	 +0.0010785	 +147.2978	 -1.3645	 +0.0000	 +413.3873	 9990144	 13828	 335548403	 0
0	 158	 0	 116	 0	 854000	 4557475	 +0.03081	 +0.13654	 +9.70953	 -0.3572	 +0.1292	 +0.0019	 -3.07683	 -0.13500	 +1.51263	 +42.62353	 +14.8873	 +15.0868	 -14.9780	 +0.0002116	 +0.0010792	 +147.3727	 -1.3645	 +0.0000	 +413.3873	 9990144	 13828	 335548403	 0
0	 159	 0	 116	 0	 854000	 4562475	 +0.01862	 +0.09554	 +9.71486	 -0.2711	 +0.2171	 -0.0106	 -3.07685	 -0.13505	 +1.51296	 +42.71765	 +14.8892	 +15.0969	 -14.9782	 +0.0002123	 +0.0010799	 +147.4476	 -1.3645	 +0.0000	 +413.3873	 9990144	 13828	 335548403	 0
0	 160	 0	 116	 0	 854000	 4567475	 +0.05685	 +0.11676	 +9.70225	 -0.2831	 +0.0653	 +0.0382	 -3.07688	 -0.13509	 +1.51329	 +42.71765	 +14.8912	 +15.1072	 -14.9784	 +0.0002129	 +0.0010805	 +147.5225	 -1.3645	 +0.0000	 +413.6458	 9990144	 13828	 335548403	 0
0	 161	 0	 116	 0	 854000	 4572474	 +0.03710	 +0.09360	 +9.66540	 -0.3973	 +0.1758	 -0.0466	 -3.07691	 -0.13514	 +1.51363	 +42.62353	 +14.8931	 +15.1173	 -14.9784	 +0.0002136	 +0.0010812	 +147.5974	 -1.3645	 +0.0000	 +413.6458	 9990144	 13828	 335548403	 0
0	 162	 0	 116	 0	 854000	 4577476	 +0.01741	 +0.12112	 +9.70701	 -0.3292	 +0.1792	 +0.0232	 -3.07694	 -0.13519	 +1.51396	 +42.62353	 +14.8951	 +15.1274	 -14.9786	 +0.0002143	 +0.0010819	 +147.6723	 -1.3646	 +0.0000	 +413.6458	 9990144	 13828	 335548403	 0
0	 163	 0	 116	 0	 854000	 4582474	 +0.02479	 +0.10648	 +9.72441	 -0.3537	 +0.0747	 -0.0497	 -3.07697	 -0.13523	 +1.51430	 +42.62353	 +14.8971	 +15.1376	 -14.9789	 +0.0002150	 +0.0010826	 +147.7472	 -1.3646	 +0.0000	 +413.6458	 9990144	 13828	 335548403	 0
0	 164	 0	 116	 0	 854000	 4587476	 +0.03579	 +0.10697	 +9.72332	 -0.2896	 +0.2164	 +0.0520	 -3.07699	 -0.13528	 +1.51463	 +42.67059	 +14.8990	 +15.1478	 -14.9792	 +0.0002157	 +0.0010832	 +147.8221	 -1.5795	 +0.0000	 +413.6458	 9990144	 13828	 335548403	 0
0	 165	 0	 116	 0	 854000	 4592475	 +0.03667	 +0.12850	 +9.72253	 -0.4073	 +0.1732	 -0.0103	 -3.07702	 -0.13533	 +1.51496	 +42.67059	 +14.9011	 +15.1580	 -14.9795	 +0.0002163	 +0.0010839	 +147.8969	 -1.5795	 +0.0000	 +413.6458	 9990144	 13828	 335548403	 0
0	 166	 0	 116	 0	 854000	 4597475	 +0.02190	 +0.08744	 +9.68059	 -0.4357	 +0.0537	 +0.0174	 -3.07706	 -0.13537	 +1.51529	 +42.67059	 +14.9029	 +15.1681	 -14.9795	 +0.0002170	 +0.0010846	 +147.9718	 -1.5795	 +0.0000	 +413.6458	 9990144	 13828	 335548403	 0
0	 167	 0	 116	 0	 854000	 4602475	 +0.03458	 +0.12790	 +9.68768	 -0.3594	 +0.0779	 +0.0066	 -3.07709	 -0.13541	 +1.51562	 +42.57647	 +14.9050	 +15.1783	 -14.9797	 +0.0002177	 +0.0010853	 +148.0467	 -1.5795	 +0.0000	 +413.6458	 9990144	 13828	 335548403	 0
0	 168	 0	 116	 0	 854000	 4607475	 +0.06361	 +0.10433	 +9.71025	 -0.4110	 +0.1754	 +0.0568	 -3.07712	 -0.13546	 +1.51595	 +42.67059	 +14.9069	 +15.1887	 -14.9799	 +0.0002184	 +0.0010859	 +148.1216	 -1.5795	 +0.0000	 +413.6458	 9990144	 13828	 335548403	 0
0	 169	 0	 116	 0	 854000	 4612476	 +0.02701	 +0.11169	 +9.68531	 -0.3383	 +0.0213	 -0.0056	 -3.07715	 -0.13549	 +1.51628	 +42.67059	 +14.9089	 +15.1988	 -14.9800	 +0.0002191	 +0.0010866	 +148.1965	 -1.5795	 +0.0000	 +413.6458	 9990144	 13828	 335548403	 0
0	 170	 0	 116	 0	 854000	 4617475	 +0.03480	 +0.08505	 +9.67557	 -0.4593	 +0.1660	 +0.0174	 -3.07719	 -0.13554	 +1.51661	 +42.57647	 +14.9107	 +15.2090	 -14.9800	 +0.0002197	 +0.0010873	 +148.2714	 -1.5795	 +0.0000	 +413.6458	 9990144	 13828	 335548403	 0
0	 171	 0	 116	 0	 854000	 4622475	 +0.04497	 +0.08320	 +9.70491	 -0.4077	 +0.1590	 -0.0465	 -3.07722	 -0.13559	 +1.51695	 +42.57647	 +14.9125	 +15.2193	 -14.9802	 +0.0002204	 +0.0010880	 +148.3463	 -1.5795	 +0.0000	 +413.6458	 9990144	 13828	 335548403	 0
0	 172	 0	 116	 0	 854000	 4627475	 +0.04239	 +0.09233	 +9.64580	 -0.2485	 +0.1743	 -0.0076	 -3.07724	 -0.13564	 +1.51728	 +42.67059	 +14.9144	 +15.2295	 -14.9800	 +0.0002211	 +0.0010886	 +148.4212	 -1.4359	 +0.0000	 +413.6458	 9990144	 13828	 335548403	 0
0	 173	 0	 116	 0	 854000	 4632476	 +0.00280	 +0.08062	 +9.70227	 -0.3249	 +0.1193	 -0.0118	 -3.07727	 -0.13568	 +1.51762	 +42.67059	 +14.9162	 +15.2395	 -14.9802	 +0.0002218	 +0.0010893	 +148.4961	 -1.4359	 +0.0000	 +413.6458	 9990144	 13828	 335548403	 0
0	 174	 0	 116	 0	 854000	 4637475	 +0.07014	 +0.13103	 +9.70448	 -0.3929	 +0.0805	 +0.0021	 -3.07731	 -0.13572	 +1.51795	 +42.67059	 +14.9183	 +15.2499	 -14.9804	 +0.0002225	 +0.0010900	 +148.5710	 -1.4359	 +0.0000	 +413.6458	 9990144	 13828	 335548403	 0
0	 175	 0	 116	 0	 854000	 4642475	 +0.03073	 +0.11791	 +9.65786	 -0.3990	 +0.0603	 +0.0766	 -3.07734	 -0.13576	 +1.51828	 +42.67059	 +14.9203	 +15.2601	 -14.9804	 +0.0002232	 +0.0010906	 +148.6460	 -1.4360	 +0.0000	 +413.6458	 9990144	 13828	 335548403	 0
0	 176	 0	 116	 0	 854000	 4647476	 +0.04710	 +0.05762	 +9.70166	 -0.3431	 +0.2826	 +0.1477	 -3.07736	 -0.13582	 +1.51860	 +42.67059	 +14.9220	 +15.2704	 -14.9805	 +0.0002239	 +0.0010913	 +148.7209	 -1.4360	 +0.0000	 +413.1288	 9990144	 13828	 335548403	 0
0	 177	 0	 116	 0	 854000	 4652475	 +0.03842	 +0.09336	 +9.73947	 -0.2987	 +0.2089	 -0.0152	 -3.07739	 -0.13587	 +1.51893	 +42.67059	 +14.9238	 +15.2806	 -14.9809	 +0.0002245	 +0.0010920	 +148.7957	 -1.4360	 +0.0000	 +413.1288	 9990144	 13828	 335548403	 0
0	 178	 0	 116	 0	 854000	 4657475	 +0.02236	 +0.09548	 +9.69977	 -0.3868	 +0.1021	 -0.0116	 -3.07742	 -0.13592	 +1.51926	 +42.57647	 +14.9257	 +15.2908	 -14.9810	 +0.0002252	 +0.0010927	 +148.8707	 -1.4360	 +0.0000	 +413.1288	 9990144	 13828	 335548403	 0
0	 179	 0	 116	 0	 854000	 4662476	 -0.00231	 +0.11432	 +9.67911	 -0.4714	 +0.0541	 +0.0039	 -3.07746	 -0.13595	 +1.51960	 +42.57647	 +14.9276	 +15.3008	 -14.9811	 +0.0002259	 +0.0010933	 +148.9456	 -1.4360	 +0.0000	 +413.1288	 9990144	 13828	 335548403	 0
0	 180	 0	 116	 0	 854000	 4667475	 +0.03785	 +0.13368	 +9.66076	 -0.3527	 +0.1553	 +0.0170	 -3.07749	 -0.13600	 +1.51993	 +42.67059	 +14.9297	 +15.3110	 -14.9811	 +0.0002266	 +0.0010940	 +149.0205	 -1.1313	 +0.0000	 +413.1288	 9990144	 13828	 335548403	 0
0	 181	 0	 116	 0	 854000	 4672475	 +0.07081	 +0.10206	 +9.69442	 -0.3285	 +0.1386	 -0.0058	 -3.07752	 -0.13605	 +1.52026	 +42.67059	 +14.9316	 +15.3214	 -14.9812	 +0.0002273	 +0.0010947	 +149.0954	 -1.1313	 +0.0000	 +413.1288	 9990144	 13828	 335548403	 0
0	 182	 0	 116	 0	 854000	 4677498	 +0.03485	 +0.09895	 +9.70030	 -0.3859	 +0.2347	 +0.0551	 -3.07755	 -0.13610	 +1.52059	 +42.67059	 +14.9335	 +15.3317	 -14.9813	 +0.0002280	 +0.0010954	 +149.1703	 -1.1313	 +0.0000	 +413.1288	 9990144	 13828	 335548403	 0
0	 183	 0	 116	 0	 854000	 4682746	 +0.03444	 +0.15309	 +9.69921	 -0.3045	 +0.0710	 +0.0324	 -3.07758	 -0.13614	 +1.52092	 +42.62353	 +14.9356	 +15.3419	 -14.9815	 +0.0002287	 +0.0010960	 +149.2452	 -1.1314	 +0.0000	 +413.1288	 9990144	 13828	 335548403	 0
0	 184	 0	 116	 0	 855000	 4687746	 +0.07061	 +0.12635	 +9.67712	 -0.3499	 +0.0816	 -0.0103	 -3.07760	 -0.13618	 +1.52125	 +42.71765	 +14.9377	 +15.3523	 -14.9815	 +0.0002294	 +0.0010967	 +149.3201	 -1.1314	 +0.0000	 +413.1288	 9990144	 13828	 335548403	 0
0	 185	 0	 116	 0	 855000	 4692711	 +0.04017	 +0.09231	 +9.70315	 -0.2297	 +0.1780	 +0.0274	 -3.07762	 -0.13623	 +1.52158	 +42.62353	 +14.9395	 +15.3626	 -14.9817	 +0.0002300	 +0.0010974	 +149.3950	 -1.1314	 +0.0000	 +413.1288	 9990144	 13828	 335548403	 0
0	 186	 0	 116	 0	 855000	 4697475	 +0.04246	 +0.10561	 +9.70357	 -0.2749	 +0.2009	 +0.0200	 -3.07543	 -0.13343	 +1.52384	 +42.67059	 +14.3402	 +15.0707	 -15.0754	 +0.0002122	 +0.0010327	 +147.5525	 -1.1314	 +0.0000	 +413.1288	 9990144	 13828	 335548403	 0
0	 187	 0	 116	 0	 855000	 4702475	 +0.02824	 +0.10322	 +9.73652	 -0.2979	 +0.1421	 +0.0230	 -3.07545	 -0.13347	 +1.52417	 +42.71765	 +14.3420	 +15.0808	 -15.0757	 +0.0002128	 +0.0010334	 +147.6279	 -1.1307	 +0.0000	 +413.1288	 9990144	 13828	 335548403	 0
0	 188	 0	 116	 0	 855000	 4707475	 -0.00852	 +0.10814	 +9.66667	 -0.3432	 +0.0791	 +0.0293	 -3.07548	 -0.13351	 +1.52450	 +42.71765	 +14.3437	 +15.0907	 -15.0758	 +0.0002135	 +0.0010340	 +147.7033	 -1.3957	 +0.0000	 +413.1288	 9990144	 13828	 335548403	 0
0	 189	 0	 116	 0	 855000	 4712475	 +0.03057	 +0.09607	 +9.70707	 -0.3540	 +0.1203	 -0.0118	 -3.07551	 -0.13356	 +1.52484	 +42.52941	 +14.3454	 +15.1008	 -15.0760	 +0.0002142	 +0.0010347	 +147.7787	 -1.3956	 +0.0000	 +413.1288	 9990144	 13828	 335548403	 0
0	 190	 0	 116	 0	 855000	 4717475	 +0.08969	 +0.08363	 +9.71170	 -0.3543	 +0.2303	 -0.0272	 -3.07554	 -0.13361	 +1.52517	 +42.62353	 +14.3471	 +15.1112	 -15.0762	 +0.0002149	 +0.0010353	 +147.8540	 -1.3956	 +0.0000	 +413.1288	 9990144	 13828	 335548403	 0
0	 191	 0	 116	 0	 855000	 4722475	 +0.01029	 +0.08867	 +9.67465	 -0.2185	 +0.1833	 +0.0306	 -3.07556	 -0.13366	 +1.52550	 +42.62353	 +14.3488	 +15.1212	 -15.0763	 +0.0002156	 +0.0010360	 +147.9294	 -1.3956	 +0.0000	 +413.1288	 9990144	 13828	 335548403	 0
0	 192	 0	 116	 0	 855000	 4727476	 +0.04272	 +0.12706	 +9.66750	 -0.3494	 +0.0651	 +0.0278	 -3.07558	 -0.13370	 +1.52583	 +42.71765	 +14.3506	 +15.1313	 -15.0763	 +0.0002162	 +0.0010366	 +148.0048	 -1.3956	 +0.0000	 +413.1288	 9990144	 13828	 335548403	 0
0	 193	 0	 116	 0	 855000	 4732475	 +0.03610	 +0.11843	 +9.68676	 -0.4478	 +0.0845	 -0.0708	 -3.07562	 -0.13375	 +1.52617	 +42.71765	 +14.3524	 +15.1414	 -15.0764	 +0.0002169	 +0.0010373	 +148.0802	 -1.3956	 +0.0000	 +413.1288	 9990144	 13828	 335548403	 0
0	 194	 0	 116	 0	 855000	 4737475	 +0.04009	 +0.08044	 +9.65163	 -0.3288	 +0.1490	 +0.0002	 -3.07565	 -0.13379	 +1.52650	 +42.62353	 +14.3541	 +15.1516	 -15.0763	 +0.0002176	 +0.0010379	 +148.1556	 -1.3956	 +0.0000	 +413.1288	 9990144	 13828	 335548403	 0
0	 195	 0	 116	 0	 855000	 4742476	 +0.03495	 +0.07462	 +9.69586	 -0.3035	 +0.2267	 +0.0915	 -3.07567	 -0.13385	 +1.52683	 +42.71765	 +14.3557	 +15.1617	 -15.0765	 +0.0002183	 +0.0010386	 +148.2309	 -1.3956	 +0.0000	 +413.1288	 9990144	 13828	 335548403	 0
0	 196	 0	 116	 0	 855000	 4747475	 +0.04666	 +0.11231	 +9.67707	 -0.3236	 +0.0411	 -0.0665	 -3.07570	 -0.13389	 +1.52716	 +42.62353	 +14.3574	 +15.1719	 -15.0766	 +0.0002190	 +0.0010392	 +148.3063	 -1.0399	 +0.0000	 +413.1288	 9990144	 13828	 335548403	 0
0	 197	 0	 116	 0	 855000	 4752475	 +0.03427	 +0.09128	 +9.66360	 -0.3266	 +0.1008	 -0.0331	 -3.07573	 -0.13393	 +1.52750	 +42.81176	 +14.3591	 +15.1820	 -15.0766	 +0.0002196	 +0.0010399	 +148.3817	 -1.0399	 +0.0000	 +413.1288	 9990144	 13828	 335548403	 0
0	 198	 0	 116	 0	 855000	 4757475	 +0.02519	 +0.11649	 +9.71672	 -0.3884	 +0.1339	 +0.0796	 -3.07576	 -0.13397	 +1.52783	 +42.62353	 +14.3609	 +15.1921	 -15.0768	 +0.0002203	 +0.0010405	 +148.4571	 -1.0399	 +0.0000	 +413.1288	 9990144	 13828	 335548403	 0
0	 199	 0	 116	 0	 855000	 4762475	 +0.01322	 +0.10021	 +9.69600	 -0.2920	 +0.2402	 -0.0060	 -3.07578	 -0.13403	 +1.52816	 +42.71765	 +14.3626	 +15.2021	 -15.0770	 +0.0002210	 +0.0010412	 +148.5325	 -1.0399	 +0.0000	 +413.1288	 9990144	 13828	 335548403	 0
0	 200	 0	 116	 0	 855000	 4767475	 -0.00119	 +0.09820	 +9.68833	 -0.3222	 +0.1879	 -0.0256	 -3.07581	 -0.13408	 +1.52849	 +42.62353	 +14.3643	 +15.2121	 -15.0771	 +0.0002217	 +0.0010418	 +148.6079	 -1.0399	 +0.0000	 +413.1288	 9990144	 13828	 335548403	 0
0	 201	 0	 116	 0	 855000	 4772475	 +0.04748	 +0.12797	 +9.67171	 -0.2537	 +0.1307	 -0.0241	 -3.07583	 -0.13413	 +1.52883	 +42.62353	 +14.3661	 +15.2223	 -15.0772	 +0.0002224	 +0.0010425	 +148.6833	 -1.0399	 +0.0000	 +413.1288	 9990144	 13828	 335548403	 0
0	 202	 0	 116	 0	 855000	 4777475	 +0.02953	 +0.11131	 +9.70663	 -0.3525	 +0.1140	 +0.0445	 -3.07586	 -0.13417	 +1.52916	 +42.62353	 +14.3679	 +15.2324	 -15.0774	 +0.0002231	 +0.0010431	 +148.7586	 -1.0399	 +0.0000	 +413.1288	 9990144	 13828	 335548403	 0
0	 203	 0	 116	 0	 855000	 4782476	 +0.06035	 +0.06866	 +9.66356	 -0.4206	 +0.1074	 +0.0370	 -3.07589	 -0.13421	 +1.52949	 +42.62353	 +14.3695	 +15.2427	 -15.0774	 +0.0002237	 +0.0010438	 +148.8340	 -1.0399	 +0.0000	 +413.1288	 9990144	 13828	 335548403	 0
0	 204	 0	 116	 0	 855000	 4787475	 +0.01396	 +0.06077	 +9.69315	 -0.2770	 +0.1436	 -0.0151	 -3.07591	 -0.13426	 +1.52982	 +42.62353	 +14.3709	 +15.2527	 -15.0775	 +0.0002244	 +0.0010444	 +148.9094	 -1.3025	 +0.0000	 +413.1288	 9990144	 13828	 335548403	 0
0	 205	 0	 116	 0	 855000	 4792475	 +0.03083	 +0.14046	 +9.70247	 -0.3475	 +0.0825	 -0.0089	 -3.07594	 -0.13430	 +1.53015	 +42.81176	 +14.3728	 +15.2628	 -15.0777	 +0.0002251	 +0.0010451	 +148.9848	 -1.3025	 +0.0000	 +413.1288	 9990144	 13828	 335548403	 0
0	 206	 0	 116	 0	 855000	 4797476	 +0.00199	 +0.11816	 +9.67958	 -0.3593	 +0.1697	 +0.1069	 -3.07597	 -0.13435	 +1.53048	 +42.62353	 +14.3746	 +15.2728	 -15.0778	 +0.0002258	 +0.0010457	 +149.0602	 -1.3025	 +0.0000	 +413.1288	 9990144	 13828	 335548403	 0
0	 207	 0	 116	 0	 855000	 4802475	 +0.04225	 +0.10121	 +9.64894	 -0.3487	 +0.2451	 +0.0141	 -3.07600	 -0.13440	 +1.53081	 +42.62353	 +14.3763	 +15.2830	 -15.0777	 +0.0002265	 +0.0010464	 +149.1356	 -1.3025	 +0.0000	 +413.1288	 9990144	 13828	 335548403	 0
0	 208	 0	 116	 0	 855000	 4807475	 +0.05915	 +0.10375	 +9.67691	 -0.3336	 +0.2482	 +0.0399	 -3.07603	 -0.13446	 +1.53113	 +42.62353	 +14.3781	 +15.2933	 -15.0778	 +0.0002272	 +0.0010470	 +149.2110	 -1.3025	 +0.0000	 +413.6458	 9990144	 13828	 335548403	 0
0	 209	 0	 116	 0	 855000	 4812475	 +0.00335	 +0.08023	 +9.70963	 -0.2892	 +0.0715	 -0.0287	 -3.07605	 -0.13450	 +1.53147	 +42.71765	 +14.3796	 +15.3033	 -15.0780	 +0.0002279	 +0.0010477	 +149.2864	 -1.3025	 +0.0000	 +413.6458	 9990144	 13828	 335548403	 0
0	 210	 0	 116	 0	 855000	 4817475	 +0.06775	 +0.11622	 +9.68322	 -0.3349	 +0.0414	 +0.0705	 -3.07608	 -0.13454	 +1.53180	 +42.67059	 +14.3814	 +15.3136	 -15.0781	 +0.0002285	 +0.0010483	 +149.3617	 -1.3025	 +0.0000	 +413.6458	 9990144	 13828	 335548403	 0
0	 211	 0	 116	 0	 855000	 4822475	 +0.02304	 +0.12506	 +9.65749	 -0.4271	 +0.1070	 +0.0172	 -3.07611	 -0.13458	 +1.53213	 +42.67059	 +14.3832	 +15.3237	 -15.0780	 +0.0002292	 +0.0010490	 +149.4371	 -1.3025	 +0.0000	 +413.6458	 9990144	 13828	 335548403	 0
0	 212	 0	 116	 0	 855000	 4827475	 +0.02721	 +0.11094	 +9.71164	 -0.3631	 +0.2872	 +0.0030	 -3.07614	 -0.13464	 +1.53246	 +42.67059	 +14.3850	 +15.3338	 -15.0783	 +0.0002299	 +0.0010496	 +149.5125	 -1.2423	 +0.0000	 +413.6458	 9990144	 13828	 335548403	 0
0	 213	 0	 116	 0	 855000	 4832476	 +0.03859	 +0.10887	 +9.70594	 -0.2412	 +0.2443	 +0.0549	 -3.07616	 -0.13470	 +1.53279	 +42.67059	 +14.3867	 +15.3441	 -15.0785	 +0.0002306	 +0.0010503	 +149.5879	 -1.2423	 +0.0000	 +413.6458	 9990144	 13828	 335548403	 0
0	 214	 0	 116	 0	 855000	 4837475	 +0.05011	 +0.12000	 +9.71039	 -0.3222	 +0.1282	 -0.0149	 -3.07619	 -0.13474	 +1.53312	 +42.67059	 +14.3885	 +15.3543	 -15.0787	 +0.0002313	 +0.0010509	 +149.6633	 -1.2423	 +0.0000	 +413.6458	 9990144	 13828	 335548403	 0
0	 215	 0	 116	 0	 855000	 4842475	 +0.01361	 +0.11157	 +9.69929	 -0.3077	 +0.0877	 +0.0445	 -3.07621	 -0.13478	 +1.53345	 +42.57647	 +14.3902	 +15.3644	 -15.0789	 +0.0002320	 +0.0010516	 +149.7387	 -1.2423	 +0.0000	 +413.6458	 9990144	 13828	 335548403	 0
0	 216	 0	 116	 0	 855000	 4847475	 +0.02509	 +0.04420	 +9.68686	 -0.4104	 +0.2021	 +0.0231	 -3.07625	 -0.13483	 +1.53378	 +42.67059	 +14.3916	 +15.3745	 -15.0790	 +0.0002327	 +0.0010522	 +149.8141	 -1.2423	 +0.0000	 +413.6458	 9990144	 13828	 335548403	 0
0	 217	 0	 116	 0	 855000	 4852476	 +0.00500	 +0.09682	 +9.66855	 -0.4130	 +0.1626	 +0.0415	 -3.07628	 -0.13488	 +1.53411	 +42.76471	 +14.3932	 +15.3846	 -15.0790	 +0.0002334	 +0.0010529	 +149.8895	 -1.2422	 +0.0000	 +413.6458	 9990144	 13828	 335548403	 0
0	 218	 0	 116	 0	 855000	 4857475	 +0.02876	 +0.12074	 +9.64821	 -0.2799	 +0.1239	 -0.0485	 -3.07630	 -0.13493	 +1.53445	 +42.67059	 +14.3950	 +15.3947	 -15.0789	 +0.0002341	 +0.0010535	 +149.9649	 -1.2422	 +0.0000	 +413.6458	 9990144	 13828	 335548403	 0
0	 219	 0	 116	 0	 855000	 4862476	 +0.03562	 +0.13135	 +9.69989	 -0.4691	 +0.0518	 +0.0585	 -3.07634	 -0.13497	 +1.53477	 +42.67059	 +14.3968	 +15.4049	 -15.0791	 +0.0002348	 +0.0010542	 +150.0403	 -1.2422	 +0.0000	 +413.6458	 9990144	 13828	 335548403	 0
0	 220	 0	 116	 0	 855000	 4867475	 +0.01321	 +0.12262	 +9.72837	 -0.3239	 +0.1465	 -0.0423	 -3.07637	 -0.13501	 +1.53511	 +42.67059	 +14.3986	 +15.4150	 -15.0794	 +0.0002354	 +0.0010548	 +150.1157	 -1.3182	 +0.0000	 +413.6458	 9990144	 13828	 335548403	 0
0	 221	 0	 116	 0	 855000	 4872475	 +0.02730	 +0.08035	 +9.70466	 -0.3449	 +0.2060	 +0.0565	 -3.07640	 -0.13506	 +1.53544	 +42.67059	 +14.4002	 +15.4252	 -15.0796	 +0.0002361	 +0.0010555	 +150.1911	 -1.3182	 +0.0000	 +413.6458	 9990144	 13828	 335548403	 0
0	 222	 0	 116	 0	 855000	 4877493	 +0.03160	 +0.08323	 +9.70465	 -0.3038	 +0.0977	 +0.0490	 -3.07642	 -0.13511	 +1.53577	 +42.67059	 +14.4018	 +15.4354	 -15.0798	 +0.0002368	 +0.0010561	 +150.2665	 -1.3182	 +0.0000	 +413.6458	 9990144	 13828	 335548403	 0
0	 223	 0	 116	 0	 855000	 4882746	 +0.01622	 +0.10654	 +9.72606	 -0.3122	 +0.0786	 -0.0287	 -3.07645	 -0.13515	 +1.53610	 +42.76471	 +14.4034	 +15.4455	 -15.0801	 +0.0002375	 +0.0010568	 +150.3419	 -1.3182	 +0.0000	 +413.6458	 9990144	 13828	 335548403	 0
0	 224	 0	 116	 0	 855000	 4887746	 +0.01770	 +0.13258	 +9.66128	 -0.3180	 +0.2230	 -0.0440	 -3.07647	 -0.13520	 +1.53644	 +42.76471	 +14.4053	 +15.4556	 -15.0801	 +0.0002382	 +0.0010574	 +150.4173	 -1.3182	 +0.0000	 +413.6458	 9990144	 13828	 335548403	 0
0	 225	 0	 116	 0	 855000	 4892716	 +0.02573	 +0.08983	 +9.68440	 -0.3403	 +0.1632	 +0.0642	 -3.07650	 -0.13525	 +1.53676	 +42.67059	 +14.4069	 +15.4658	 -15.0802	 +0.0002389	 +0.0010581	 +150.4927	 -1.3182	 +0.0000	 +413.6458	 9990144	 13828	 335548403	 0
0	 226	 0	 116	 0	 855000	 4897475	 -0.00115	 +0.10061	 +9.70090	 -0.4297	 +0.2022	 +0.0461	 -3.07446	 -0.13249	 +1.53892	 +42.67059	 +13.8533	 +15.1692	 -15.1640	 +0.0002207	 +0.0009981	 +148.5778	 -1.3182	 +0.0000	 +413.6458	 9990144	 13828	 335548403	 0
0	 227	 0	 116	 0	 855000	 4902475	 +0.04920	 +0.09999	 +9.69012	 -0.3660	 +0.1401	 +0.0369	 -3.07449	 -0.13254	 +1.53925	 +42.67059	 +13.8548	 +15.1793	 -15.1641	 +0.0002214	 +0.0009987	 +148.6537	 -1.3178	 +0.0000	 +413.6458	 9990144	 13828	 335548403	 0
0	 228	 0	 116	 0	 855000	 4907476	 -0.00366	 +0.11347	 +9.68698	 -0.2981	 +0.0806	 +0.0246	 -3.07451	 -0.13258	 +1.53958	 +42.67059	 +13.8564	 +15.1892	 -15.1643	 +0.0002221	 +0.0009993	 +148.7295	 -1.6020	 +0.0000	 +413.6458	 9990144	 13828	 335548403	 0
0	 229	 0	 116	 0	 855000	 4912476	 +0.04132	 +0.11802	 +9.66029	 -0.3740	 +0.0754	 -0.0194	 -3.07454	 -0.13262	 +1.53991	 +42.67059	 +13.8580	 +15.1993	 -15.1643	 +0.0002228	 +0.0009999	 +148.8053	 -1.6020	 +0.0000	 +413.6458	 9990144	 13828	 335548403	 0
0	 230	 0	 116	 0	 855000	 4917475	 +0.02482	 +0.08649	 +9.69596	 -0.2554	 +0.1518	 +0.0321	 -3.07456	 -0.13267	 +1.54024	 +42.67059	 +13.8595	 +15.2093	 -15.1644	 +0.0002235	 +0.0010006	 +148.8811	 -1.6021	 +0.0000	 +413.6458	 9990144	 13828	 335548403	 0
0	 231	 0	 116	 0	 855000	 4922475	 +0.00933	 +0.11402	 +9.69994	 -0.2923	 +0.1848	 -0.0136	 -3.07459	 -0.13272	 +1.54057	 +42.67059	 +13.8611	 +15.2193	 -15.1646	 +0.0002241	 +0.0010012	 +148.9569	 -1.6021	 +0.0000	 +413.6458	 9990144	 13828	 335548403	 0
0	 232	 0	 116	 0	 855000	 4927475	 +0.02838	 +0.12364	 +9.67623	 -0.3812	 +0.1107	 +0.0537	 -3.07462	 -0.13277	 +1.54090	 +42.76471	 +13.8627	 +15.2293	 -15.1647	 +0.0002248	 +0.0010018	 +149.0328	 -1.6021	 +0.0000	 +413.6458	 9990144	 13828	 335548403	 0
0	 233	 0	 116	 0	 855000	 4932475	 +0.04374	 +0.11750	 +9.67657	 -0.4094	 +0.0452	 +0.0265	 -3.07465	 -0.13281	 +1.54123	 +42.62353	 +13.8643	 +15.2394	 -15.1648	 +0.0002255	 +0.0010025	 +149.1086	 -1.6021	 +0.0000	 +413.6458	 9990144	 13828	 335548403	 0
0	 234	 0	 116	 0	 855000	 4937475	 +0.03447	 +0.08144	 +9.67876	 -0.4078	 +0.1418	 +0.0748	 -3.07468	 -0.13285	 +1.54156	 +42.71765	 +13.8657	 +15.2495	 -15.1649	 +0.0002262	 +0.0010031	 +149.1844	 -1.6021	 +0.0000	 +413.6458	 9990144	 13828	 335548403	 0
0	 235	 0	 116	 0	 855000	 4942475	 +0.02030	 +0.11025	 +9.67719	 -0.2619	 +0.2479	 +0.0137	 -3.07470	 -0.13291	 +1.54189	 +42.71765	 +13.8673	 +15.2596	 -15.1650	 +0.0002269	 +0.0010037	 +149.2602	 -1.6021	 +0.0000	 +413.6458	 9990144	 13828	 335548403	 0
0	 236	 0	 116	 0	 855000	 4947476	 +0.00762	 +0.08113	 +9.70998	 -0.2355	 +0.1445	 +0.0351	 -3.07472	 -0.13295	 +1.54222	 +42.71765	 +13.8687	 +15.2695	 -15.1652	 +0.0002276	 +0.0010043	 +149.3361	 -1.1169	 +0.0000	 +413.6458	 9990144	 13828	 335548403	 0
0	 237	 0	 116	 0	 855000	 4952475	 +0.02733	 +0.13073	 +9.67136	 -0.3298	 +0.1711	 -0.0362	 -3.07475	 -0.13300	 +1.54255	 +42.71765	 +13.8703	 +15.2796	 -15.1653	 +0.0002283	 +0.0010050	 +149.4119	 -1.1169	 +0.0000	 +413.6458	 9990144	 13828	 335548403	 0
0	 238	 0	 116	 0	 855000	 4957475	 +0.01675	 +0.08969	 +9.74262	 -0.3861	 +0.0814	 -0.0191	 -3.07478	 -0.13305	 +1.54289	 +42.62353	 +13.8718	 +15.2896	 -15.1657	 +0.0002289	 +0.0010056	 +149.4877	 -1.1169	 +0.0000	 +413.6458	 9990144	 13828	 335548403	 0
0	 239	 0	 116	 0	 855000	 4962475	 +0.03168	 +0.08327	 +9.72109	 -0.3419	 +0.1340	 +0.0566	 -3.07481	 -0.13309	 +1.54321	 +42.62353	 +13.8732	 +15.2997	 -15.1660	 +0.0002296	 +0.0010062	 +149.5635	 -1.1169	 +0.0000	 +413.6458	 9990144	 13828	 335548403	 0
0	 240	 0	 116	 0	 855000	 4967475	 +0.05974	 +0.10327	 +9.71352	 -0.2683	 +0.2062	 -0.0195	 -3.07483	 -0.13314	 +1.54355	 +42.52941	 +13.8747	 +15.3100	 -15.1662	 +0.0002303	 +0.0010068	 +149.6394	 -1.1169	 +0.0000	 +413.6458	 9990144	 13828	 335548403	 0
0	 241	 0	 116	 0	 855000	 4972476	 +0.01163	 +0.12885	 +9.68751	 -0.3503	 +0.1699	 +0.0412	 -3.07486	 -0.13319	 +1.54388	 +42.71765	 +13.8763	 +15.3200	 -15.1664	 +0.0002310	 +0.0010075	 +149.7152	 -1.1170	 +0.0000	 +413.6458	 9990144	 13828	 335548403	 0
0	 242	 0	 116	 0	 855000	 4977476	 +0.07312	 +0.11107	 +9.69291	 -0.3341	 +0.0487	 -0.0528	 -3.07488	 -0.13323	 +1.54421	 +42.62353	 +13.8778	 +15.3303	 -15.1665	 +0.0002317	 +0.0010081	 +149.7910	 -1.1170	 +0.0000	 +413.6458	 9990144	 13828	 335548403	 0
0	 243	 0	 116	 0	 855000	 4982475	 +0.01505	 +0.10694	 +9.67199	 -0.3745	 +0.1700	 -0.0713	 -3.07491	 -0.13328	 +1.54455	 +42.71765	 +13.8794	 +15.3403	 -15.1665	 +0.0002324	 +0.0010087	 +149.8669	 -1.1170	 +0.0000	 +413.6458	 9990144	 13828	 335548403	 0
0	 244	 0	 116	 0	 855000	 4987475	 +0.02418	 +0.12222	 +9.70810	 -0.2938	 +0.1420	 -0.0653	 -3.07494	 -0.13333	 +1.54489	 +42.62353	 +13.8810	 +15.3504	 -15.1668	 +0.0002331	 +0.0010094	 +149.9427	 -1.2220	 +0.0000	 +413.6458	 9990144	 13828	 335548403	 0
0	 245	 0	 116	 0	 855000	 4992475	 +0.02530	 +0.10511	 +9.72112	 -0.3208	 +0.0791	 -0.0134	 -3.07497	 -0.13337	 +1.54523	 +42.62353	 +13.8825	 +15.3605	 -15.1671	 +0.0002338	 +0.0010100	 +150.0185	 -1.2220	 +0.0000	 +413.6458	 9990144	 13828	 335548403	 0
0	 246	 0	 116	 0	 855000	 4997475	 +0.03573	 +0.10746	 +9.70407	 -0.3715	 +0.0717	 +0.0006	 -3.07500	 -0.13341	 +1.54556	 +42.71765	 +13.8840	 +15.3706	 -15.1673	 +0.0002344	 +0.0010106	 +150.0944	 -1.2220	 +0.0000	 +413.6458	 9990144	 13828	 335548403	 0
0	 247	 0	 116	 0	 855000	 5002475	 +0.03826	 +0.09662	 +9.70756	 -0.4419	 +0.1209	 +0.0249	 -3.07503	 -0.13346	 +1.54589	 +42.71765	 +13.8854	 +15.3808	 -15.1675	 +0.0002351	 +0.0010112	 +150.1702	 -1.2220	 +0.0000	 +413.6458	 9990144	 13828	 335548403	 0
0	 248	 0	 116	 0	 855000	 5007475	 +0.06998	 +0.06819	 +9.68657	 -0.2990	 +0.1426	 +0.0277	 -3.07506	 -0.13350	 +1.54622	 +42.62353	 +13.8868	 +15.3911	 -15.1676	 +0.0002358	 +0.0010119	 +150.2460	 -1.2220	 +0.0000	 +413.6458	 9990144	 13828	 335548403	 0
0	 249	 0	 116	 0	 855000	 5012475	 +0.04460	 +0.08090	 +9.72141	 -0.3521	 +0.1055	 -0.0452	 -3.07508	 -0.13355	 +1.54656	 +42.62353	 +13.8881	 +15.4013	 -15.1678	 +0.0002365	 +0.0010125	 +150.3219	 -1.2220	 +0.0000	 +413.6458	 9990144	 13828	 335548403	 0
0	 250	 0	 116	 0	 855000	 5017475	 +0.04388	 +0.11327	 +9.70459	 -0.2509	 +0.1411	 -0.0029	 -3.07510	 -0.13359	 +1.54689	 +42.62353	 +13.8897	 +15.4115	 -15.1681	 +0.0002372	 +0.0010131	 +150.3977	 -1.2220	 +0.0000	 +413.6458	 9990144	 13828	 335548403	 0
0	 251	 0	 116	 0	 855000	 5022475	 +0.03090	 +0.10984	 +9.69257	 -0.3569	 +0.0806	 -0.0513	 -3.07513	 -0.13364	 +1.54723	 +42.62353	 +13.8912	 +15.4216	 -15.1682	 +0.0002379	 +0.0010138	 +150.4736	 -1.2220	 +0.0000	 +413.6458	 9990144	 13828	 335548403	 0
0	 252	 0	 116	 0	 855000	 5027475	 +0.03005	 +0.09226	 +9.68683	 -0.3694	 +0.1536	 -0.0194	 -3.07516	 -0.13368	 +1.54756	 +42.62353	 +13.8926	 +15.4317	 -15.1683	 +0.0002386	 +0.0010144	 +150.5494	 -1.0399	 +0.0000	 +413.6458	 9990144	 13828	 335548403	 0
0	 253	 0	 116	 0	 855000	 5032475	 +0.03736	 +0.08422	 +9.70608	 -0.3180	 +0.2413	 -0.0379	 -3.07519	 -0.13374	 +1.54789	 +42.62353	 +13.8940	 +15.4419	 -15.1685	 +0.0002393	 +0.0010150	 +150.6252	 -1.0399	 +0.0000	 +413.6458	 9990144	 13828	 335548403	 0
0	 254	 0	 116	 0	 855000	 5037475	 +0.06328	 +0.08821	 +9.71517	 -0.3178	 +0.1221	 -0.0530	 -3.07522	 -0.13378	 +1.54823	 +42.62353	 +13.8954	 +15.4522	 -15.1687	 +0.0002400	 +0.0010156	 +150.7011	 -1.0399	 +0.0000	 +413.6458	 9990144	 13828	 335548403	 0
0	 255	 0	 116	 0	 855000	 5042475	 +0.05728	 +0.12821	 +9.70567	 -0.2020	 +0.1988	 -0.0185	 -3.07523	 -0.13384	 +1.54857	 +42.67059	 +13.8970	 +15.4625	 -15.1689	 +0.0002407	 +0.0010163	 +150.7769	 -1.0399	 +0.0000	 +413.6458	 9990144	 13828	 335548403	 0
0	 0	 0	 116	 0	 855000	 5047475	 +0.04966	 +0.09282	 +9.67609	 -0.3706	 +0.1967	 +0.0247	 -3.07526	 -0.13389	 +1.54890	 +42.76471	 +13.8984	 +15.4727	 -15.1690	 +0.0002414	 +0.0010169	 +150.8528	 -1.0399	 +0.0000	 +413.6458	 9990144	 13828	 335548403	 0
0	 1	 0	 116	 0	 855000	 5052475	 -0.00100	 +0.08450	 +9.70581	 -0.3516	 +0.2253	 +0.0306	 -3.07529	 -0.13394	 +1.54922	 +42.76471	 +13.8998	 +15.4827	 -15.1692	 +0.0002421	 +0.0010175	 +150.9286	 -1.0399	 +0.0000	 +413.6458	 9990144	 13828	 335548403	 0
0	 2	 0	 116	 0	 855000	 5057475	 +0.00185	 +0.08111	 +9.70327	 -0.3446	 +0.1067	 +0.0187	 -3.07532	 -0.13399	 +1.54956	 +42.76471	 +13.9012	 +15.4927	 -15.1694	 +0.0002428	 +0.0010181	 +151.0045	 -1.0399	 +0.0000	 +413.6458	 9990144	 13828	 335548403	 0
0	 3	 0	 116	 0	 855000	 5062475	 +0.06951	 +0.08495	 +9.70217	 -0.3272	 +0.1369	 -0.0348	 -3.07535	 -0.13403	 +1.54989	 +42.67059	 +13.9026	 +15.5030	 -15.1696	 +0.0002435	 +0.0010188	 +151.0803	 -1.0399	 +0.0000	 +413.6458	 9990144	 13828	 335548403	 0
0	 4	 0	 116	 0	 855000	 5067476	 +0.03458	 +0.12274	 +9.66370	 -0.3283	 +0.0422	 +0.0414	 -3.07537	 -0.13407	 +1.55022	 +42.67059	 +13.9041	 +15.5132	 -15.1696	 +0.0002442	 +0.0010194	 +151.1562	 -1.4566	 +0.0000	 +413.6458	 9990144	 13828	 335548403	 0
0	 5	 0	 116	 0	 855000	 5072475	 +0.00695	 +0.11348	 +9.71337	 -0.2675	 +0.2512	 +0.0350	 -3.07539	 -0.13413	 +1.55055	 +42.67059	 +13.9056	 +15.5232	 -15.1699	 +0.0002449	 +0.0010200	 +151.2320	 -1.4566	 +0.0000	 +413.6458	 9990144	 13828	 335548403	 0
0	 6	 0	 116	 0	 855000	 5077495	 +0.03821	 +0.09038	 +9.68916	 -0.3419	 +0.2046	 +0.0048	 -3.07542	 -0.13418	 +1.55088	 +42.67059	 +13.9071	 +15.5334	 -15.1700	 +0.0002456	 +0.0010207	 +151.3079	 -1.4567	 +0.0000	 +413.6458	 9990144	 13828	 335548403	 0
0	 7	 0	 116	 0	 855000	 5082745	 +0.02634	 +0.06080	 +9.67184	 -0.3555	 +0.1447	 +0.0110	 -3.07545	 -0.13422	 +1.55121	 +42.67059	 +13.9083	 +15.5435	 -15.1700	 +0.0002463	 +0.0010213	 +151.3837	 -1.4567	 +0.0000	 +413.6458	 9990144	 13828	 335548403	 0
0	 8	 0	 116	 0	 855000	 5087704	 +0.03522	 +0.11942	 +9.70610	 -0.3329	 +0.1495	 -0.0332	 -3.07548	 -0.13427	 +1.55155	 +42.67059	 +13.9098	 +15.5537	 -15.1702	 +0.0002469	 +0.0010219	 +151.4596	 -1.4567	 +0.0000	 +413.6458	 9990144	 13828	 335548403	 0
0	 9	 0	 116	 0	 855000	 5092712	 +0.02870	 +0.07371	 +9.67480	 -0.3709	 +0.1412	 +0.0262	 -3.07551	 -0.13432	 +1.55188	 +42.67059	 +13.9112	 +15.5638	 -15.1702	 +0.0002476	 +0.0010226	 +151.5354	 -1.4567	 +0.0000	 +413.6458	 9990144	 13828	 335548403	 0
0	 10	 0	 116	 0	 855000	 5097475	 +0.03307	 +0.07664	 +9.68787	 -0.3854	 +0.2279	 -0.0805	 -3.07358	 -0.13160	 +1.55396	 +42.57647	 +13.3975	 +15.2632	 -15.2454	 +0.0002292	 +0.0009666	 +149.5559	 -1.4567	 +0.0000	 +413.6458	 9990144	 13828	 335548403	 0
0	 11	 0	 116	 0	 855000	 5102475	 +0.05153	 +0.11616	 +9.70647	 -0.2869	 +0.1318	 +0.0520	 -3.07360	 -0.13165	 +1.55429	 +42.67059	 +13.3989	 +15.2733	 -15.2456	 +0.0002299	 +0.0009672	 +149.6322	 -1.4558	 +0.0000	 +413.6458	 9990144	 13828	 335548403	 0
0	 12	 0	 116	 0	 855000	 5107475	 +0.05540	 +0.11003	 +9.69686	 -0.2571	 +0.1531	 +0.0077	 -3.07362	 -0.13170	 +1.55462	 +42.67059	 +13.4002	 +15.2834	 -15.2458	 +0.0002305	 +0.0009678	 +149.7084	 -1.4353	 +0.0000	 +413.6458	 9990144	 13828	 335548403	 0
0	 13	 0	 116	 0	 855000	 5112476	 +0.02320	 +0.10071	 +9.67422	 -0.3565	 +0.1389	 +0.0613	 -3.07365	 -0.13175	 +1.55495	 +42.67059	 +13.4015	 +15.2934	 -15.2458	 +0.0002312	 +0.0009684	 +149.7846	 -1.4353	 +0.0000	 +413.6458	 9990144	 13828	 335548403	 0
0	 14	 0	 116	 0	 855000	 5117475	 +0.05990	 +0.07528	 +9.69291	 -0.3810	 +0.1617	 +0.0111	 -3.07368	 -0.13179	 +1.55528	 +42.67059	 +13.4027	 +15.3036	 -15.2460	 +0.0002319	 +0.0009690	 +149.8608	 -1.4353	 +0.0000	 +413.6458	 9990144	 13828	 335548403	 0
0	 15	 0	 116	 0	 855000	 5122475	 +0.04407	 +0.08907	 +9.70564	 -0.4028	 +0.1960	 +0.0642	 -3.07371	 -0.13185	 +1.55561	 +42.67059	 +13.4040	 +15.3137	 -15.2462	 +0.0002326	 +0.0009696	 +149.9371	 -1.4353	 +0.0000	 +413.6458	 9990144	 13828	 335548403	 0
0	 16	 0	 116	 0	 855000	 5127476	 +0.00456	 +0.11589	 +9.71489	 -0.2631	 +0.1149	 +0.0245	 -3.07373	 -0.13189	 +1.55594	 +42.67059	 +13.4054	 +15.3236	 -15.2465	 +0.0002333	 +0.0009702	 +150.0133	 -1.4353	 +0.0000	 +413.9907	 9990144	 13828	 335548403	 0
0	 17	 0	 116	 0	 855000	 5132475	 +0.03816	 +0.11278	 +9.71284	 -0.3382	 -0.0202	 +0.1116	 -3.07376	 -0.13192	 +1.55626	 +42.67059	 +13.4067	 +15.3337	 -15.2467	 +0.0002340	 +0.0009708	 +150.0895	 -1.4353	 +0.0000	 +413.9907	 9990144	 13828	 335548403	 0
0	 18	 0	 116	 0	 855000	 5137475	 +0.02272	 +0.11119	 +9.69305	 -0.3687	 +0.1908	 +0.0764	 -3.07379	 -0.13197	 +1.55659	 +42.57647	 +13.4081	 +15.3437	 -15.2469	 +0.0002347	 +0.0009714	 +150.1658	 -1.4353	 +0.0000	 +413.9907	 9990144	 13828	 335548403	 0
0	 19	 0	 116	 0	 855000	 5142475	 +0.01741	 +0.11401	 +9.68969	 -0.3964	 +0.1753	 -0.0680	 -3.07382	 -0.13203	 +1.55692	 +42.67059	 +13.4094	 +15.3537	 -15.2471	 +0.0002354	 +0.0009720	 +150.2420	 -1.4354	 +0.0000	 +413.9907	 9990144	 13828	 335548403	 0
0	 20	 0	 116	 0	 855000	 5147475	 +0.02118	 +0.06415	 +9.70616	 -0.3041	 +0.1205	 +0.0428	 -3.07384	 -0.13207	 +1.55725	 +42.57647	 +13.4106	 +15.3637	 -15.2473	 +0.0002361	 +0.0009727	 +150.3183	 -1.4216	 +0.0000	 +413.9907	 9990144	 13828	 335548403	 0
0	 21	 0	 116	 0	 855000	 5152475	 +0.03534	 +0.08999	 +9.67245	 -0.3305	 +0.0860	 +0.0215	 -3.07387	 -0.13211	 +1.55758	 +42.67059	 +13.4118	 +15.3738	 -15.2474	 +0.0002367	 +0.0009733	 +150.3945	 -1.4216	 +0.0000	 +413.9907	 9990144	 13828	 335548403	 0
0	 22	 0	 116	 0	 855000	 5157475	 +0.05633	 +0.09384	 +9.65924	 -0.3449	 +0.0499	 +0.0019	 -3.07390	 -0.13215	 +1.55792	 +42.71765	 +13.4131	 +15.3840	 -15.2473	 +0.0002374	 +0.0009739	 +150.4707	 -1.4215	 +0.0000	 +413.9907	 9990144	 13828	 335548403	 0
0	 23	 0	 116	 0	 855000	 5162475	 +0.03338	 +0.10091	 +9.68305	 -0.2817	 +0.0835	 +0.0488	 -3.07392	 -0.13219	 +1.55825	 +42.71765	 +13.4144	 +15.3940	 -15.2474	 +0.0002381	 +0.0009745	 +150.5470	 -1.4215	 +0.0000	 +413.9907	 9990144	 13828	 335548403	 0
0	 24	 0	 116	 0	 855000	 5167476	 +0.02286	 +0.10116	 +9.72623	 -0.4300	 +0.1038	 +0.0464	 -3.07395	 -0.13224	 +1.55857	 +42.62353	 +13.4157	 +15.4041	 -15.2478	 +0.0002388	 +0.0009751	 +150.6232	 -1.4215	 +0.0000	 +414.5077	 9990144	 13828	 335548403	 0
0	 25	 0	 116	 0	 855000	 5172476	 +0.05023	 +0.10097	 +9.71232	 -0.2709	 +0.1912	 -0.0151	 -3.07398	 -0.13229	 +1.55891	 +42.52941	 +13.4169	 +15.4142	 -15.2480	 +0.0002395	 +0.0009757	 +150.6994	 -1.4215	 +0.0000	 +414.5077	 9990144	 13828	 335548403	 0
0	 26	 0	 116	 0	 855000	 5177476	 +0.05288	 +0.13386	 +9.69744	 -0.3334	 +0.1474	 -0.0241	 -3.07400	 -0.13234	 +1.55924	 +42.71765	 +13.4184	 +15.4244	 -15.2482	 +0.0002402	 +0.0009763	 +150.7757	 -1.4215	 +0.0000	 +414.5077	 9990144	 13828	 335548403	 0
0	 27	 0	 116	 0	 855000	 5182475	 +0.06392	 +0.12532	 +9.68963	 -0.3298	 +0.1356	 +0.0490	 -3.07403	 -0.13238	 +1.55957	 +42.71765	 +13.4198	 +15.4346	 -15.2483	 +0.0002409	 +0.0009769	 +150.8519	 -1.4215	 +0.0000	 +414.5077	 9990144	 13828	 335548403	 0
0	 28	 0	 116	 0	 855000	 5187475	 +0.02978	 +0.08037	 +9.72827	 -0.3342	 +0.0992	 -0.0392	 -3.07406	 -0.13243	 +1.55991	 +42.71765	 +13.4210	 +15.4447	 -15.2487	 +0.0002416	 +0.0009775	 +150.9282	 -1.4154	 +0.0000	 +414.5077	 9990144	 13828	 335548403	 0
0	 29	 0	 116	 0	 855000	 5192476	 +0.01279	 +0.10073	 +9.70378	 -0.2392	 +0.0736	 -0.0835	 -3.07408	 -0.13247	 +1.56025	 +42.71765	 +13.4223	 +15.4547	 -15.2489	 +0.0002423	 +0.0009781	 +151.0044	 -1.4154	 +0.0000	 +414.5077	 9990144	 13828	 335548403	 0
0	 30	 0	 116	 0	 855000	 5197475	 +0.02857	 +0.10892	 +9.70422	 -0.3072	 +0.1205	 -0.0043	 -3.07410	 -0.13251	 +1.56058	 +42.71765	 +13.4236	 +15.4648	 -15.2491	 +0.0002430	 +0.0009787	 +151.0806	 -1.4154	 +0.0000	 +414.5077	 9990144	 13828	 335548403	 0
0	 31	 0	 116	 0	 855000	 5202475	 +0.05456	 +0.07957	 +9.67565	 -0.3056	 +0.0761	 -0.0119	 -3.07412	 -0.13255	 +1.56091	 +42.71765	 +13.4248	 +15.4750	 -15.2491	 +0.0002437	 +0.0009793	 +151.1569	 -1.4154	 +0.0000	 +414.5077	 9990144	 13828	 335548403	 0
0	 32	 0	 116	 0	 855000	 5207476	 +0.01955	 +0.08647	 +9.69600	 -0.3072	 +0.1543	 -0.0120	 -3.07415	 -0.13260	 +1.56125	 +42.62353	 +13.4260	 +15.4850	 -15.2493	 +0.0002444	 +0.0009799	 +151.2331	 -1.4154	 +0.0000	 +414.2492	 9990144	 13828	 335548403	 0
0	 33	 0	 116	 0	 855000	 5212475	 +0.00264	 +0.10677	 +9.70611	 -0.3111	 +0.1991	 +0.0474	 -3.07417	 -0.13265	 +1.56157	 +42.62353	 +13.4273	 +15.4950	 -15.2496	 +0.0002451	 +0.0009805	 +151.3094	 -1.4154	 +0.0000	 +414.2492	 9990144	 13828	 335548403	 0
0	 34	 0	 116	 0	 855000	 5217475	 +0.03394	 +0.07280	 +9.66081	 -0.2395	 +0.1711	 -0.0001	 -3.07419	 -0.13270	 +1.56191	 +42.71765	 +13.4284	 +15.5050	 -15.2495	 +0.0002458	 +0.0009811	 +151.3856	 -1.4154	 +0.0000	 +414.2492	 9990144	 13828	 335548403	 0
0	 35	 0	 116	 0	 855000	 5222475	 +0.02840	 +0.11405	 +9.67949	 -0.3278	 +0.1378	 -0.0194	 -3.07422	 -0.13275	 +1.56224	 +42.71765	 +13.4297	 +15.5151	 -15.2496	 +0.0002465	 +0.0009818	 +151.4619	 -1.4154	 +0.0000	 +414.2492	 9990144	 13828	 335548403	 0
0	 36	 0	 116	 0	 855000	 5227475	 +0.01836	 +0.10592	 +9.66800	 -0.3947	 +0.1155	 -0.0223	 -3.07425	 -0.13280	 +1.56257	 +42.71765	 +13.4310	 +15.5251	 -15.2497	 +0.0002471	 +0.0009824	 +151.5381	 -1.2003	 +0.0000	 +414.2492	 9990144	 13828	 335548403	 0
0	 37	 0	 116	 0	 855000	 5232476	 +0.05756	 +0.10151	 +9.75039	 -0.4282	 +0.1703	 -0.0299	 -3.07429	 -0.13285	 +1.56291	 +42.71765	 +13.4323	 +15.5354	 -15.2501	 +0.0002478	 +0.0009830	 +151.6144	 -1.2003	 +0.0000	 +414.2492	 9990144	 13828	 335548403	 0
0	 38	 0	 116	 0	 855000	 5237475	 +0.06377	 +0.07445	 +9.68533	 -0.3528	 +0.1840	 +0.0884	 -3.07431	 -0.13290	 +1.56323	 +42.62353	 +13.4334	 +15.5456	 -15.2502	 +0.0002485	 +0.0009836	 +151.6906	 -1.2003	 +0.0000	 +414.2492	 9990144	 13828	 335548403	 0
0	 39	 0	 116	 0	 855000	 5242475	 +0.03602	 +0.07898	 +9.72777	 -0.3343	 +0.1114	 -0.0559	 -3.07434	 -0.13294	 +1.56357	 +42.62353	 +13.4346	 +15.5558	 -15.2505	 +0.0002492	 +0.0009842	 +151.7669	 -1.2003	 +0.0000	 +414.2492	 9990144	 13828	 335548403	 0
0	 40	 0	 116	 0	 855000	 5247476	 +0.03661	 +0.10697	 +9.67946	 -0.2944	 +0.0952	 -0.0088	 -3.07436	 -0.13298	 +1.56390	 +42.62353	 +13.4359	 +15.5659	 -15.2506	 +0.0002499	 +0.0009848	 +151.8431	 -1.2003	 +0.0000	 +413.6458	 9990144	 13828	 335548403	 0
0	 41	 0	 116	 0	 855000	 5252475	 +0.06759	 +0.10599	 +9.72308	 -0.3489	 +0.1008	 +0.0519	 -3.07439	 -0.13303	 +1.56423	 +42.81176	 +13.4371	 +15.5762	 -15.2509	 +0.0002506	 +0.0009854	 +151.9194	 -1.2003	 +0.0000	 +413.6458	 9990144	 13828	 335548403	 0
0	 42	 0	 116	 0	 855000	 5257475	 +0.02287	 +0.09453	 +9.70653	 -0.2659	 +0.1994	 -0.0242	 -3.07441	 -0.13308	 +1.56457	 +42.62353	 +13.4384	 +15.5863	 -15.2511	 +0.0002513	 +0.0009860	 +151.9956	 -1.2003	 +0.0000	 +413.6458	 9990144	 13828	 335548403	 0
0	 43	 0	 116	 0	 855000	 5262475	 +0.04776	 +0.09331	 +9.67951	 -0.2724	 +0.1408	 -0.0379	 -3.07444	 -0.13313	 +1.56490	 +42.62353	 +13.4396	 +15.5965	 -15.2512	 +0.0002520	 +0.0009866	 +152.0719	 -1.2003	 +0.0000	 +413.6458	 9990144	 13828	 335548403	 0
0	 44	 0	 116	 0	 855000	 5267475	 +0.03144	 +0.11280	 +9.69947	 -0.4061	 +0.1116	 +0.0110	 -3.07447	 -0.13317	 +1.56523	 +42.71765	 +13.4409	 +15.6066	 -15.2514	 +0.0002527	 +0.0009872	 +152.1481	 -1.2591	 +0.0000	 +413.6458	 9990144	 13828	 335548403	 0
0	 45	 0	 116	 0	 855000	 5272493	 +0.05177	 +0.08625	 +9.70992	 -0.3498	 +0.2042	 -0.0089	 -3.07450	 -0.13322	 +1.56557	 +42.71765	 +13.4421	 +15.6168	 -15.2516	 +0.0002534	 +0.0009878	 +152.2244	 -1.2591	 +0.0000	 +413.6458	 9990144	 13828	 335548403	 0
0	 46	 0	 116	 0	 855000	 5277491	 +0.03162	 +0.08703	 +9.71910	 -0.4131	 +0.2010	 -0.0026	 -3.07453	 -0.13327	 +1.56590	 +42.62353	 +13.4432	 +15.6270	 -15.2518	 +0.0002541	 +0.0009884	 +152.3007	 -1.2591	 +0.0000	 +413.6458	 9990144	 13828	 335548403	 0
0	 47	 0	 116	 0	 855000	 5282745	 +0.03246	 +0.10185	 +9.69847	 -0.3529	 +0.1733	 +0.0504	 -3.07456	 -0.13332	 +1.56623	 +42.71765	 +13.4445	 +15.6371	 -15.2520	 +0.0002548	 +0.0009890	 +152.3769	 -1.2591	 +0.0000	 +413.6458	 9990144	 13828	 335548403	 0
0	 48	 0	 116	 0	 855000	 5287745	 +0.02712	 +0.10933	 +9.70992	 -0.3795	 +0.1448	 -0.0300	 -3.07459	 -0.13337	 +1.56656	 +42.71765	 +13.4458	 +15.6472	 -15.2523	 +0.0002555	 +0.0009897	 +152.4532	 -1.2591	 +0.0000	 +413.6458	 9990144	 13828	 335548403	 0
0	 49	 0	 116	 0	 855000	 5292710	 +0.02103	 +0.10985	 +9.74620	 -0.3357	 +0.1327	 +0.0444	 -3.07462	 -0.13342	 +1.56689	 +42.67059	 +13.4470	 +15.6574	 -15.2527	 +0.0002563	 +0.0009903	 +152.5294	 -1.2591	 +0.0000	 +413.6458	 9990144	 13828	 335548403	 0
0	 50	 0	 116	 0	 855000	 5297476	 +0.05350	 +0.08613	 +9.67454	 -0.3747	 +0.1942	 +0.0080	 -3.07279	 -0.13073	 +1.56891	 +42.57647	 +12.9685	 +15.3528	 -15.3202	 +0.0002375	 +0.0009379	 +150.4918	 -1.2591	 +0.0000	 +413.6458	 9990144	 13828	 335548403	 0
0	 51	 0	 116	 0	 855000	 5302476	 +0.01654	 +0.11215	 +9.70375	 -0.3495	 +0.1417	 +0.0018	 -3.07282	 -0.13078	 +1.56924	 +42.67059	 +12.9697	 +15.3627	 -15.3205	 +0.0002382	 +0.0009385	 +150.5684	 -1.2590	 +0.0000	 +413.6458	 9990144	 13828	 335548403	 0
0	 52	 0	 116	 0	 855000	 5307475	 +0.03222	 +0.12750	 +9.68108	 -0.3440	 +0.1429	 -0.0728	 -3.07284	 -0.13082	 +1.56958	 +42.67059	 +12.9709	 +15.3727	 -15.3206	 +0.0002389	 +0.0009391	 +150.6450	 -0.9046	 +0.0000	 +413.6458	 9990144	 13828	 335548403	 0
0	 53	 0	 116	 0	 855000	 5312475	 +0.00691	 +0.10067	 +9.66860	 -0.3376	 +0.2072	 +0.0777	 -3.07287	 -0.13088	 +1.56991	 +42.67059	 +12.9721	 +15.3826	 -15.3207	 +0.0002396	 +0.0009397	 +150.7216	 -0.9046	 +0.0000	 +413.6458	 9990144	 13828	 335548403	 0
0	 54	 0	 116	 0	 855000	 5317475	 +0.01799	 +0.08354	 +9.66506	 -0.3144	 +0.1882	 -0.0013	 -3.07289	 -0.13093	 +1.57024	 +42.57647	 +12.9731	 +15.3925	 -15.3207	 +0.0002403	 +0.0009402	 +150.7982	 -0.9046	 +0.0000	 +413.6458	 9990144	 13828	 335548403	 0
0	 55	 0	 116	 0	 855000	 5322475	 +0.04964	 +0.09613	 +9.67944	 -0.3262	 +0.0872	 +0.0430	 -3.07292	 -0.13097	 +1.57057	 +42.67059	 +12.9742	 +15.4026	 -15.3208	 +0.0002409	 +0.0009408	 +150.8748	 -0.9046	 +0.0000	 +413.6458	 9990144	 13828	 335548403	 0
0	 56	 0	 116	 0	 855000	 5327475	 +0.01046	 +0.09642	 +9.71775	 -0.4055	 +0.2070	 +0.0521	 -3.07295	 -0.13102	 +1.57090	 +42.67059	 +12.9753	 +15.4125	 -15.3211	 +0.0002416	 +0.0009414	 +150.9514	 -0.9046	 +0.0000	 +413.6458	 9990144	 13828	 335548403	 0
0	 57	 0	 116	 0	 855000	 5332474	 +0.02799	 +0.11561	 +9.67922	 -0.3953	 +0.0979	 +0.0521	 -3.07298	 -0.13107	 +1.57122	 +42.76471	 +12.9765	 +15.4225	 -15.3212	 +0.0002423	 +0.0009420	 +151.0280	 -0.9046	 +0.0000	 +413.6458	 9990144	 13828	 335548403	 0
0	 58	 0	 116	 0	 855000	 5337475	 +0.05928	 +0.09577	 +9.68526	 -0.3873	 +0.1017	 -0.0193	 -3.07301	 -0.13111	 +1.57156	 +42.67059	 +12.9776	 +15.4326	 -15.3213	 +0.0002430	 +0.0009426	 +151.1046	 -0.9046	 +0.0000	 +413.6458	 9990144	 13828	 335548403	 0
0	 59	 0	 116	 0	 855000	 5342475	 +0.03441	 +0.09896	 +9.71237	 -0.2938	 +0.1941	 -0.0653	 -3.07304	 -0.13116	 +1.57190	 +42.67059	 +12.9786	 +15.4427	 -15.3216	 +0.0002437	 +0.0009432	 +151.1812	 -0.9046	 +0.0000	 +413.6458	 9990144	 13828	 335548403	 0
0	 60	 0	 116	 0	 855000	 5347475	 +0.01521	 +0.10361	 +9.71584	 -0.3706	 +0.1093	 +0.0613	 -3.07306	 -0.13121	 +1.57222	 +42.62353	 +12.9798	 +15.4526	 -15.3219	 +0.0002444	 +0.0009438	 +151.2578	 -1.1169	 +0.0000	 +413.6458	 9990144	 13828	 335548403	 0
0	 61	 0	 116	 0	 855000	 5352475	 +0.06685	 +0.12389	 +9.70790	 -0.3675	 +0.1234	 -0.0300	 -3.07309	 -0.13125	 +1.57256	 +42.62353	 +12.9810	 +15.4628	 -15.3221	 +0.0002451	 +0.0009444	 +151.3344	 -1.1169	 +0.0000	 +413.6458	 9990144	 13828	 335548403	 0
0	 62	 0	 116	 0	 855000	 5357476	 +0.04709	 +0.12421	 +9.68287	 -0.2645	 +0.1609	 +0.0199	 -3.07311	 -0.13130	 +1.57289	 +42.71765	 +12.9822	 +15.4729	 -15.3222	 +0.0002458	 +0.0009449	 +151.4110	 -1.1169	 +0.0000	 +413.6458	 9990144	 13828	 335548403	 0
0	 63	 0	 116	 0	 855000	 5362475	 +0.02947	 +0.12180	 +9.70618	 -0.3530	 +0.1490	 -0.0499	 -3.07314	 -0.13135	 +1.57322	 +42.71765	 +12.9834	 +15.4830	 -15.3225	 +0.0002465	 +0.0009455	 +151.4877	 -1.1169	 +0.0000	 +413.6458	 9990144	 13828	 335548403	 0
0	 64	 0	 116	 0	 855000	 5367476	 +0.04569	 +0.13230	 +9.71180	 -0.4280	 +0.1337	 -0.0527	 -3.07318	 -0.13140	 +1.57356	 +42.71765	 +12.9846	 +15.4931	 -15.3227	 +0.0002472	 +0.0009461	 +151.5643	 -1.1169	 +0.0000	 +413.6458	 9990144	 13828	 335548403	 0
0	 65	 0	 116	 0	 855000	 5372475	 +0.02607	 +0.11696	 +9.69310	 -0.2752	 +0.1194	 +0.0139	 -3.07320	 -0.13144	 +1.57389	 +42.62353	 +12.9858	 +15.5031	 -15.3229	 +0.0002479	 +0.0009467	 +151.6409	 -1.1169	 +0.0000	 +413.6458	 9990144	 13828	 335548403	 0
0	 66	 0	 116	 0	 855000	 5377475	 +0.03449	 +0.10472	 +9.74184	 -0.2950	 +0.1374	 +0.0626	 -3.07322	 -0.13149	 +1.57422	 +42.71765	 +12.9869	 +15.5132	 -15.3233	 +0.0002486	 +0.0009473	 +151.7175	 -1.1169	 +0.0000	 +413.6458	 9990144	 13828	 335548403	 0
0	 67	 0	 116	 0	 855000	 5382476	 +0.05754	 +0.07914	 +9.70170	 -0.3163	 +0.1357	 +0.0094	 -3.07325	 -0.13154	 +1.57455	 +42.62353	 +12.9879	 +15.5233	 -15.3235	 +0.0002493	 +0.0009479	 +151.7941	 -1.1169	 +0.0000	 +413.6458	 9990144	 13828	 335548403	 0
0	 68	 0	 116	 0	 855000	 5387475	 +0.05408	 +0.08668	 +9.69393	 -0.3463	 +0.1618	 +0.0049	 -3.07327	 -0.13159	 +1.57488	 +42.71765	 +12.9889	 +15.5335	 -15.3236	 +0.0002500	 +0.0009485	 +151.8707	 -1.2188	 +0.0000	 +413.6458	 9990144	 13828	 335548403	 0
0	 69	 0	 116	 0	 855000	 5392476	 +0.03966	 +0.09849	 +9.70557	 -0.2874	 +0.1393	 -0.0682	 -3.07330	 -0.13163	 +1.57522	 +42.62353	 +12.9899	 +15.5436	 -15.3239	 +0.0002507	 +0.0009491	 +151.9474	 -1.2188	 +0.0000	 +413.6458	 9990144	 13828	 335548403	 0
0	 70	 0	 116	 0	 855000	 5397475	 +0.01725	 +0.07646	 +9.70756	 -0.3551	 +0.1617	 +0.1145	 -3.07332	 -0.13168	 +1.57554	 +42.62353	 +12.9909	 +15.5536	 -15.3241	 +0.0002514	 +0.0009496	 +152.0240	 -1.2188	 +0.0000	 +413.6458	 9990144	 13828	 335548403	 0
0	 71	 0	 116	 0	 855000	 5402475	 +0.06639	 +0.09966	 +9.65830	 -0.4153	 +0.1804	 -0.0362	 -3.07336	 -0.13173	 +1.57588	 +42.62353	 +12.9920	 +15.5638	 -15.3241	 +0.0002521	 +0.0009502	 +152.1006	 -1.2188	 +0.0000	 +413.6458	 9990144	 13828	 335548403	 0
0	 72	 0	 116	 0	 855000	 5407476	 -0.00056	 +0.09692	 +9.70926	 -0.4444	 +0.1569	 -0.0468	 -3.07339	 -0.13178	 +1.57622	 +42.71765	 +12.9930	 +15.5737	 -15.3243	 +0.0002528	 +0.0009508	 +152.1772	 -1.2189	 +0.0000	 +413.6458	 9990144	 13828	 335548403	 0
0	 73	 0	 116	 0	 855000	 5412475	 +0.04027	 +0.06854	 +9.68438	 -0.3147	 +0.1418	 +0.0611	 -3.07342	 -0.13183	 +1.57654	 +42.71765	 +12.9940	 +15.5838	 -15.3244	 +0.0002535	 +0.0009514	 +152.2538	 -1.2189	 +0.0000	 +413.6458	 9990144	 13828	 335548403	 0
0	 74	 0	 116	 0	 855000	 5417475	 +0.03172	 +0.13411	 +9.69547	 -0.3506	 +0.1205	 +0.0795	 -3.07345	 -0.13187	 +1.57687	 +42.62353	 +12.9952	 +15.5938	 -15.3246	 +0.0002542	 +0.0009520	 +152.3305	 -1.2189	 +0.0000	 +413.6458	 9990144	 13828	 335548403	 0
0	 75	 0	 116	 0	 855000	 5422475	 +0.02957	 +0.09989	 +9.69987	 -0.3722	 +0.1276	 +0.0445	 -3.07348	 -0.13192	 +1.57720	 +42.62353	 +12.9963	 +15.6039	 -15.3248	 +0.0002549	 +0.0009526	 +152.4071	 -1.2189	 +0.0000	 +413.6458	 9990144	 13828	 335548403	 0
0	 76	 0	 116	 0	 855000	 5427475	 +0.02862	 +0.13590	 +9.64427	 -0.4112	 +0.1692	 -0.0193	 -3.07351	 -0.13197	 +1.57753	 +42.62353	 +12.9975	 +15.6139	 -15.3248	 +0.0002556	 +0.0009532	 +152.4837	 -1.3025	 +0.0000	 +413.6458	 9990144	 13828	 335548403	 0
0	 77	 0	 116	 0	 855000	 5432475	 +0.03490	 +0.08656	 +9.69737	 -0.3357	 +0.1634	 +0.0323	 -3.07354	 -0.13202	 +1.57786	 +42.62353	 +12.9985	 +15.6240	 -15.3249	 +0.0002563	 +0.0009538	 +152.5603	 -1.3025	 +0.0000	 +413.6458	 9990144	 13828	 335548403	 0
0	 78	 0	 116	 0	 855000	 5437475	 +0.05987	 +0.08772	 +9.69783	 -0.3330	 +0.0958	 -0.0301	 -3.07356	 -0.13206	 +1.57819	 +42.62353	 +12.9995	 +15.6342	 -15.3251	 +0.0002570	 +0.0009543	 +152.6370	 -1.3025	 +0.0000	 +413.6458	 9990144	 13828	 335548403	 0
0	 79	 0	 116	 0	 855000	 5442475	 +0.03478	 +0.10651	 +9.70311	 -0.3249	 +0.1913	 -0.0195	 -3.07359	 -0.13211	 +1.57853	 +42.62353	 +13.0006	 +15.6443	 -15.3253	 +0.0002577	 +0.0009549	 +152.7136	 -1.3025	 +0.0000	 +413.6458	 9990144	 13828	 335548403	 0
0	 80	 0	 116	 0	 855000	 5447475	 +0.03338	 +0.09415	 +9.68676	 -0.2887	 +0.1179	 +0.0185	 -3.07361	 -0.13216	 +1.57886	 +42.62353	 +13.0016	 +15.6544	 -15.3254	 +0.0002584	 +0.0009555	 +152.7902	 -1.3025	 +0.0000	 +414.2492	 9990144	 13828	 335548403	 0
0	 81	 0	 116	 0	 855000	 5452476	 +0.04202	 +0.11140	 +9.71141	 -0.3618	 +0.1751	 +0.0064	 -3.07364	 -0.13221	 +1.57919	 +42.71765	 +13.0028	 +15.6645	 -15.3257	 +0.0002591	 +0.0009561	 +152.8668	 -1.3025	 +0.0000	 +414.2492	 9990144	 13828	 335548403	 0
0	 82	 0	 116	 0	 855000	 5457475	 +0.05461	 +0.09293	 +9.71040	 -0.3133	 +0.1571	 +0.0367	 -3.07366	 -0.13226	 +1.57952	 +42.62353	 +13.0038	 +15.6747	 -15.3259	 +0.0002598	 +0.0009567	 +152.9435	 -1.3025	 +0.0000	 +414.2492	 9990144	 13828	 335548403	 0
0	 83	 0	 116	 0	 855000	 5462476	 +0.04643	 +0.08191	 +9.68581	 -0.2739	 +0.1360	 +0.0214	 -3.07369	 -0.13230	 +1.57985	 +42.71765	 +13.0047	 +15.6849	 -15.3260	 +0.0002605	 +0.0009573	 +153.0201	 -1.3025	 +0.0000	 +414.2492	 9990144	 13828	 335548403	 0
0	 84	 0	 116	 0	 855000	 5467475	 +0.04333	 +0.11713	 +9.68010	 -0.3548	 +0.2023	 -0.0363	 -3.07371	 -0.13236	 +1.58019	 +42.71765	 +13.0059	 +15.6950	 -15.3261	 +0.0002612	 +0.0009579	 +153.0967	 -1.2591	 +0.0000	 +414.2492	 9990144	 13828	 335548403	 0
0	 85	 0	 116	 0	 855000	 5472492	 +0.05811	 +0.13671	 +9.69448	 -0.3241	 +0.1371	 -0.0682	 -3.07374	 -0.13240	 +1.58052	 +42.71765	 +13.0071	 +15.7052	 -15.3263	 +0.0002619	 +0.0009585	 +153.1734	 -1.2591	 +0.0000	 +414.2492	 9990144	 13828	 335548403	 0
0	 86	 0	 116	 0	 855000	 5477493	 +0.02361	 +0.06516	 +9.71007	 -0.4374	 +0.0442	 +0.0477	 -3.07378	 -0.13244	 +1.58085	 +42.71765	 +13.0080	 +15.7153	 -15.3265	 +0.0002626	 +0.0009590	 +153.2500	 -1.2591	 +0.0000	 +414.2492	 9990144	 13828	 335548403	 0
0	 87	 0	 116	 0	 855000	 5482752	 +0.01965	 +0.09230	 +9.71739	 -0.3049	 +0.1015	 -0.0227	 -3.07380	 -0.13249	 +1.58119	 +42.62353	 +13.0090	 +15.7253	 -15.3268	 +0.0002633	 +0.0009596	 +153.3266	 -1.2591	 +0.0000	 +414.2492	 9990144	 13828	 335548403	 0
0	 88	 0	 116	 0	 855000	 5487745	 +0.02241	 +0.08991	 +9.68119	 -0.4061	 +0.0946	 +0.0293	 -3.07383	 -0.13253	 +1.58152	 +42.71765	 +13.0100	 +15.7354	 -15.3269	 +0.0002640	 +0.0009602	 +153.4033	 -1.2591	 +0.0000	 +414.2492	 9990144	 13828	 335548403	 0
0	 89	 0	 116	 0	 855000	 5492711	 +0.08052	 +0.10269	 +9.71958	 -0.3605	 +0.1318	 +0.0839	 -3.07386	 -0.13257	 +1.58184	 +42.76471	 +13.0110	 +15.7457	 -15.3271	 +0.0002647	 +0.0009608	 +153.4799	 -1.2591	 +0.0000	 +414.2492	 9990144	 13828	 335548403	 0
0	 90	 0	 116	 0	 855000	 5497475	 +0.04156	 +0.10858	 +9.70568	 -0.3984	 +0.2158	 +0.0565	 -3.07212	 -0.12991	 +1.58382	 +42.71765	 +12.5637	 +15.4373	 -15.3883	 +0.0002457	 +0.0009117	 +151.3895	 -1.2591	 +0.0000	 +414.2492	 9990144	 13828	 335548403	 0
0	 91	 0	 116	 0	 855000	 5502475	 +0.04308	 +0.08859	 +9.69457	 -0.3197	 +0.1047	 -0.0333	 -3.07214	 -0.12995	 +1.58416	 +42.76471	 +12.5646	 +15.4473	 -15.3885	 +0.0002464	 +0.0009122	 +151.4664	 -1.2590	 +0.0000	 +414.2492	 9990144	 13828	 335548403	 0
0	 92	 0	 116	 0	 855000	 5507475	 +0.04153	 +0.10329	 +9.69500	 -0.3046	 +0.1984	 -0.0638	 -3.07217	 -0.13001	 +1.58449	 +42.67059	 +12.5655	 +15.4573	 -15.3886	 +0.0002471	 +0.0009128	 +151.5434	 -1.4867	 +0.0000	 +414.2492	 9990144	 13828	 335548403	 0
0	 93	 0	 116	 0	 855000	 5512475	 +0.01733	 +0.10825	 +9.65877	 -0.4141	 +0.1126	 -0.0298	 -3.07220	 -0.13005	 +1.58483	 +42.67059	 +12.5665	 +15.4672	 -15.3887	 +0.0002478	 +0.0009134	 +151.6203	 -1.4867	 +0.0000	 +414.2492	 9990144	 13828	 335548403	 0
