Message ID	Frame counter	Reserved	Message length	GNSS Week Number	GNSS TOW	Timestamp [us]	AccX [m/s²]	AccY [m/s²]	AccZ [m/s²]	OmgX [deg/s]	OmgY [def/s]	OmgZ [def/s]	Roll [deg]	Pitch [deg]	Yaw [deg]	IMU Temp [°C]	Vx/Vnorth [m/s]	Vy/Veast [m/s]	Vz/Vdown [m/s]	Longitude [deg]	Latitude [deg]	Altitude/MSL [m]	Mag. heading [deg]	Odometer [m/s]	Pressure altitude [m]	System status	Additional system status	AHRS status	Reserved
0	 71	 0	 116	 0	 1571000	 928468	 -0.04836	 -7.02055	 -6.98696	 -0.2559	 +0.1223	 +0.0401	 +0.69362	 +0.53535	 +0.15793	 +43.00000	 -37.4892	 -5.2387	 +27.0918	 -0.0002122	 -0.0007431	 -99.4412	 -3.0131	 +0.0000	 +413.8180	 12087296	 13828	 335545843	 0
0	 72	 0	 116	 0	 1571000	 933469	 -0.02223	 -7.05463	 -6.98044	 -0.3481	 +0.0836	 -0.0509	 +0.69349	 +0.53551	 +0.15759	 +43.00000	 -37.5123	 -5.2405	 +27.1064	 -0.0002125	 -0.0007448	 -99.5767	 -3.0129	 +0.0000	 +413.8180	 12087296	 13828	 335545843	 0
0	 73	 0	 116	 0	 1571000	 938462	 -0.03906	 -7.05341	 -6.97528	 -0.3275	 +0.1365	 +0.0526	 +0.69337	 +0.53566	 +0.15726	 +43.00000	 -37.5354	 -5.2424	 +27.1210	 -0.0002127	 -0.0007465	 -99.7122	 -3.0127	 +0.0000	 +413.8180	 12087296	 13828	 335545843	 0
0	 74	 0	 116	 0	 1571000	 943462	 -0.01725	 -7.06355	 -6.95262	 -0.3439	 +0.1139	 -0.0252	 +0.69324	 +0.53582	 +0.15692	 +43.09412	 -37.5585	 -5.2443	 +27.1356	 -0.0002130	 -0.0007482	 -99.8479	 -3.0125	 +0.0000	 +413.8180	 12087296	 13828	 335545843	 0
0	 75	 0	 116	 0	 1571000	 948469	 +0.00919	 -7.03822	 -7.03157	 -0.4362	 +0.0716	 +0.0481	 +0.69310	 +0.53597	 +0.15658	 +43.00000	 -37.5815	 -5.2458	 +27.1500	 -0.0002132	 -0.0007499	 -99.9836	 -3.1416	 +0.0000	 +413.8180	 12087296	 13828	 335545843	 0
0	 76	 0	 116	 0	 1571000	 953462	 -0.02422	 -7.04082	 -6.98082	 -0.3908	 +0.1931	 +0.0342	 +0.69297	 +0.53613	 +0.15625	 +43.09412	 -37.6046	 -5.2476	 +27.1646	 -0.0002134	 -0.0007516	 -100.1194	 -3.1416	 +0.0000	 +413.8180	 12087296	 13828	 335545843	 0
0	 77	 0	 116	 0	 1571000	 958462	 -0.03854	 -7.06711	 -6.99904	 -0.2585	 +0.0691	 +0.0143	 +0.69285	 +0.53629	 +0.15591	 +43.00000	 -37.6279	 -5.2494	 +27.1791	 -0.0002137	 -0.0007533	 -100.2552	 -3.1416	 +0.0000	 +413.8180	 12087296	 13828	 335545843	 0
0	 78	 0	 116	 0	 1571000	 963463	 -0.03672	 -7.03472	 -6.97791	 -0.3149	 +0.0652	 +0.0113	 +0.69273	 +0.53644	 +0.15557	 +43.04706	 -37.6510	 -5.2511	 +27.1938	 -0.0002139	 -0.0007550	 -100.3912	 -3.1416	 +0.0000	 +413.8180	 12087296	 13828	 335545843	 0
0	 79	 0	 116	 0	 1571000	 968462	 -0.02647	 -7.08262	 -7.02281	 -0.3217	 +0.1013	 -0.0573	 +0.69260	 +0.53660	 +0.15523	 +43.14118	 -37.6743	 -5.2529	 +27.2082	 -0.0002141	 -0.0007567	 -100.5272	 -3.1416	 +0.0000	 +413.3010	 12087296	 13828	 335545843	 0
0	 80	 0	 116	 0	 1571000	 973469	 -0.00942	 -7.02460	 -6.96659	 -0.4174	 +0.1152	 +0.0877	 +0.69247	 +0.53675	 +0.15490	 +43.04706	 -37.6973	 -5.2546	 +27.2229	 -0.0002144	 -0.0007584	 -100.6633	 -3.1416	 +0.0000	 +413.3010	 12087296	 13828	 335545843	 0
0	 81	 0	 116	 0	 1571000	 978462	 +0.00493	 -7.01536	 -6.97840	 -0.3155	 +0.0815	 -0.0085	 +0.69234	 +0.53691	 +0.15456	 +43.14118	 -37.7203	 -5.2562	 +27.2376	 -0.0002146	 -0.0007601	 -100.7994	 -3.1416	 +0.0000	 +413.3010	 12087296	 13828	 335545843	 0
0	 82	 0	 116	 0	 1571000	 983469	 -0.03394	 -7.04619	 -7.01915	 -0.3405	 +0.1295	 -0.0282	 +0.69221	 +0.53707	 +0.15422	 +43.04706	 -37.7436	 -5.2579	 +27.2521	 -0.0002148	 -0.0007618	 -100.9356	 -3.1416	 +0.0000	 +413.3010	 12087296	 13828	 335545843	 0
0	 83	 0	 116	 0	 1571000	 988469	 -0.02459	 -7.06409	 -6.99466	 -0.3865	 +0.1333	 -0.0419	 +0.69208	 +0.53723	 +0.15388	 +43.04706	 -37.7668	 -5.2597	 +27.2666	 -0.0002151	 -0.0007635	 -101.0719	 +2.9766	 +0.0000	 +413.3010	 12087296	 13828	 335545843	 0
0	 84	 0	 116	 0	 1571000	 993469	 -0.04155	 -7.04711	 -7.00896	 -0.3167	 +0.1124	 +0.0021	 +0.69195	 +0.53739	 +0.15354	 +43.04706	 -37.7901	 -5.2614	 +27.2812	 -0.0002153	 -0.0007652	 -101.2083	 +2.9765	 +0.0000	 +413.3010	 12087296	 13828	 335545843	 0
0	 85	 0	 116	 0	 1571000	 998469	 +0.00703	 -7.05255	 -6.97483	 -0.3601	 +0.1342	 -0.0373	 +0.69182	 +0.53755	 +0.15320	 +43.04706	 -37.8131	 -5.2631	 +27.2958	 -0.0002156	 -0.0007669	 -101.3447	 +2.9765	 +0.0000	 +413.3010	 12087296	 13828	 335545843	 0
0	 86	 0	 116	 0	 1571000	 1003470	 -0.04421	 -7.06659	 -6.98360	 -0.4351	 +0.1742	 -0.0555	 +0.69168	 +0.53771	 +0.15286	 +43.04706	 -37.8363	 -5.2650	 +27.3104	 -0.0002158	 -0.0007687	 -101.4813	 +2.9765	 +0.0000	 +413.3010	 12087296	 13828	 335545843	 0
0	 87	 0	 116	 0	 1571000	 1008469	 -0.03764	 -7.05564	 -7.00419	 -0.3709	 +0.0891	 +0.0921	 +0.69155	 +0.53787	 +0.15253	 +42.95294	 -37.8596	 -5.2667	 +27.3250	 -0.0002160	 -0.0007704	 -101.6178	 +2.9764	 +0.0000	 +413.3010	 12087296	 13828	 335545843	 0
0	 88	 0	 116	 0	 1571000	 1013469	 -0.02840	 -7.08313	 -7.02189	 -0.4185	 +0.1757	 -0.0191	 +0.69142	 +0.53803	 +0.15219	 +43.04706	 -37.8830	 -5.2685	 +27.3394	 -0.0002163	 -0.0007721	 -101.7545	 +2.9764	 +0.0000	 +413.3010	 12087296	 13828	 335545843	 0
0	 89	 0	 116	 0	 1571000	 1018469	 -0.04626	 -7.04665	 -6.98645	 -0.3639	 +0.1564	 -0.0648	 +0.69129	 +0.53819	 +0.15185	 +43.04706	 -37.9062	 -5.2702	 +27.3541	 -0.0002165	 -0.0007738	 -101.8912	 +2.9764	 +0.0000	 +413.3010	 12087296	 13828	 335545843	 0
0	 90	 0	 116	 0	 1571000	 1023469	 -0.04210	 -7.03623	 -7.00377	 -0.3937	 +0.1274	 -0.0281	 +0.69115	 +0.53835	 +0.15151	 +43.14118	 -37.9295	 -5.2719	 +27.3687	 -0.0002167	 -0.0007755	 -102.0280	 +2.9764	 +0.0000	 +413.3010	 12087296	 13828	 335545843	 0
0	 91	 0	 116	 0	 1571000	 1028469	 -0.04045	 -7.02110	 -7.04451	 -0.3917	 +0.1202	 +0.0207	 +0.69102	 +0.53851	 +0.15117	 +43.04706	 -37.9529	 -5.2733	 +27.3833	 -0.0002170	 -0.0007772	 -102.1649	 +2.8258	 +0.0000	 +413.3010	 12087296	 13828	 335545843	 0
0	 92	 0	 116	 0	 1571000	 1033469	 +0.01718	 -7.04814	 -6.95564	 -0.4571	 +0.0933	 +0.0010	 +0.69088	 +0.53866	 +0.15083	 +43.04706	 -37.9759	 -5.2751	 +27.3979	 -0.0002172	 -0.0007789	 -102.3019	 +2.8257	 +0.0000	 +413.3010	 12087296	 13828	 335545843	 0
0	 93	 0	 116	 0	 1571000	 1038469	 -0.04878	 -7.05721	 -7.03007	 -0.3905	 +0.1244	 +0.0160	 +0.69075	 +0.53882	 +0.15049	 +42.95294	 -37.9993	 -5.2768	 +27.4125	 -0.0002174	 -0.0007807	 -102.4389	 +2.8256	 +0.0000	 +413.3010	 12087296	 13828	 335545843	 0
0	 94	 0	 116	 0	 1571000	 1043469	 -0.04393	 -7.03618	 -6.98741	 -0.3468	 +0.1566	 +0.0995	 +0.69062	 +0.53897	 +0.15017	 +43.04706	 -38.0226	 -5.2785	 +27.4272	 -0.0002177	 -0.0007824	 -102.5760	 +2.8256	 +0.0000	 +413.3010	 12087296	 13828	 335545843	 0
0	 95	 0	 116	 0	 1571000	 1048469	 -0.02036	 -7.05076	 -6.99707	 -0.5197	 +0.1536	 -0.0203	 +0.69048	 +0.53914	 +0.14983	 +43.04706	 -38.0458	 -5.2802	 +27.4418	 -0.0002179	 -0.0007841	 -102.7132	 +2.8255	 +0.0000	 +413.3010	 12087296	 13828	 335545843	 0
0	 96	 0	 116	 0	 1571000	 1053469	 -0.03096	 -7.04898	 -6.99711	 -0.4131	 +0.0906	 +0.0283	 +0.69034	 +0.53929	 +0.14949	 +43.04706	 -38.0691	 -5.2819	 +27.4564	 -0.0002182	 -0.0007858	 -102.8504	 +2.8254	 +0.0000	 +413.3010	 12087296	 13828	 335545843	 0
0	 97	 0	 116	 0	 1571000	 1058469	 -0.04332	 -7.05323	 -6.98495	 -0.4608	 +0.0819	 -0.0021	 +0.69020	 +0.53944	 +0.14915	 +43.04706	 -38.0925	 -5.2836	 +27.4711	 -0.0002184	 -0.0007875	 -102.9877	 +2.8253	 +0.0000	 +413.3010	 12087296	 13828	 335545843	 0
0	 98	 0	 116	 0	 1571000	 1063469	 -0.00777	 -7.06259	 -6.97901	 -0.4086	 +0.0585	 +0.0207	 +0.69006	 +0.53960	 +0.14881	 +43.04706	 -38.1156	 -5.2854	 +27.4857	 -0.0002186	 -0.0007893	 -103.1251	 +2.8252	 +0.0000	 +413.3010	 12087296	 13828	 335545843	 0
0	 99	 0	 116	 0	 1571000	 1068469	 -0.02896	 -7.04034	 -6.96833	 -0.3517	 +0.2467	 +0.0386	 +0.68994	 +0.53976	 +0.14848	 +43.04706	 -38.1388	 -5.2872	 +27.5005	 -0.0002189	 -0.0007910	 -103.2626	 +2.6958	 +0.0000	 +413.3010	 12087296	 13828	 335545843	 0
0	 100	 0	 116	 0	 1571000	 1073487	 -0.00431	 -7.08010	 -6.98708	 -0.3923	 +0.1118	 +0.0160	 +0.68981	 +0.53992	 +0.14814	 +43.04706	 -38.1620	 -5.2890	 +27.5150	 -0.0002191	 -0.0007927	 -103.4001	 +2.6958	 +0.0000	 +413.3010	 12087296	 13828	 335545843	 0
0	 101	 0	 116	 0	 1571000	 1078521	 -0.01892	 -7.09727	 -6.94590	 -0.2942	 +0.0912	 -0.0740	 +0.68968	 +0.54008	 +0.14780	 +43.14118	 -38.1852	 -5.2910	 +27.5297	 -0.0002193	 -0.0007944	 -103.5377	 +2.6957	 +0.0000	 +413.3010	 12087296	 13828	 335545843	 0
0	 102	 0	 116	 0	 1571000	 1083526	 -0.01236	 -7.08778	 -6.96417	 -0.3886	 +0.0205	 +0.0877	 +0.68954	 +0.54022	 +0.14746	 +43.04706	 -38.2084	 -5.2930	 +27.5443	 -0.0002196	 -0.0007962	 -103.6754	 +2.6956	 +0.0000	 +413.3010	 12087296	 13828	 335545843	 0
0	 103	 0	 116	 0	 1571000	 1088522	 -0.04186	 -7.06421	 -6.99413	 -0.4275	 +0.2262	 +0.0053	 +0.68941	 +0.54038	 +0.14712	 +43.04706	 -38.2318	 -5.2947	 +27.5589	 -0.0002198	 -0.0007979	 -103.8132	 +2.6956	 +0.0000	 +413.3010	 12087296	 13828	 335545843	 0
0	 104	 0	 116	 0	 1571000	 1093472	 -0.00810	 -7.05030	 -7.04695	 -0.3422	 +0.0544	 -0.0646	 +0.68927	 +0.54054	 +0.14678	 +43.09412	 -38.2551	 -5.2963	 +27.5734	 -0.0002201	 -0.0007996	 -103.9510	 +2.6955	 +0.0000	 +413.3010	 12087296	 13828	 335545843	 0
0	 105	 0	 116	 0	 1571000	 1098469	 +0.00494	 -7.03248	 -7.00994	 -0.3825	 +0.1940	 -0.0192	 +0.69045	 +0.53454	 +0.14524	 +43.00000	 -37.7393	 -4.9751	 +27.1603	 -0.0002028	 -0.0007662	 -99.9286	 +2.6955	 +0.0000	 +413.3010	 12087296	 13828	 335547891	 0
0	 106	 0	 116	 0	 1571000	 1103462	 +0.00833	 -7.06394	 -7.04362	 -0.3922	 +0.1487	 +0.0266	 +0.69032	 +0.53470	 +0.14491	 +43.00000	 -37.7624	 -4.9765	 +27.1745	 -0.0002030	 -0.0007679	 -100.0645	 +2.6963	 +0.0000	 +413.3010	 12087296	 13828	 335547891	 0
0	 107	 0	 116	 0	 1571000	 1108462	 -0.05859	 -7.07717	 -6.99316	 -0.4103	 +0.0752	 +0.0131	 +0.69019	 +0.53486	 +0.14457	 +43.00000	 -37.7857	 -4.9783	 +27.1890	 -0.0002032	 -0.0007696	 -100.2004	 +3.1009	 +0.0000	 +413.3010	 12087296	 13828	 335547891	 0
0	 108	 0	 116	 0	 1571000	 1113462	 -0.01305	 -7.05550	 -6.96324	 -0.3556	 +0.1294	 -0.0129	 +0.69006	 +0.53501	 +0.14423	 +43.09412	 -37.8087	 -4.9799	 +27.2036	 -0.0002034	 -0.0007714	 -100.3363	 +3.1009	 +0.0000	 +413.3010	 12087296	 13828	 335547891	 0
0	 109	 0	 116	 0	 1571000	 1118462	 -0.05007	 -7.07390	 -7.00866	 -0.2841	 +0.1181	 +0.0022	 +0.68994	 +0.53517	 +0.14389	 +43.00000	 -37.8320	 -4.9816	 +27.2181	 -0.0002037	 -0.0007731	 -100.4724	 +3.1008	 +0.0000	 +413.3010	 12087296	 13828	 335547891	 0
0	 110	 0	 116	 0	 1571000	 1123462	 -0.01426	 -7.03273	 -6.99289	 -0.3297	 +0.1205	 +0.0357	 +0.68981	 +0.53533	 +0.14355	 +43.09412	 -37.8550	 -4.9831	 +27.2326	 -0.0002039	 -0.0007748	 -100.6085	 +3.1007	 +0.0000	 +413.3010	 12087296	 13828	 335547891	 0
0	 111	 0	 116	 0	 1571000	 1128462	 -0.01992	 -7.06316	 -7.02343	 -0.4197	 +0.1852	 -0.0084	 +0.68968	 +0.53549	 +0.14322	 +43.00000	 -37.8782	 -4.9846	 +27.2470	 -0.0002041	 -0.0007765	 -100.7447	 +3.1007	 +0.0000	 +413.8180	 12087296	 13828	 335547891	 0
0	 112	 0	 116	 0	 1571000	 1133462	 +0.00108	 -7.09481	 -6.97901	 -0.2828	 +0.0288	 +0.0783	 +0.68955	 +0.53564	 +0.14288	 +43.09412	 -37.9013	 -4.9864	 +27.2614	 -0.0002043	 -0.0007782	 -100.8810	 +3.1006	 +0.0000	 +413.8180	 12087296	 13828	 335547891	 0
0	 113	 0	 116	 0	 1571000	 1138462	 -0.02643	 -7.07786	 -6.99893	 -0.3532	 +0.1166	 +0.0128	 +0.68943	 +0.53579	 +0.14254	 +43.09412	 -37.9245	 -4.9881	 +27.2759	 -0.0002046	 -0.0007799	 -101.0173	 +3.1006	 +0.0000	 +413.8180	 12087296	 13828	 335547891	 0
0	 114	 0	 116	 0	 1571000	 1143462	 -0.02476	 -7.04754	 -7.00387	 -0.3299	 +0.0776	 -0.0601	 +0.68929	 +0.53595	 +0.14220	 +43.00000	 -37.9476	 -4.9896	 +27.2904	 -0.0002048	 -0.0007816	 -101.1538	 +3.1005	 +0.0000	 +413.8180	 12087296	 13828	 335547891	 0
0	 115	 0	 116	 0	 1571000	 1148462	 -0.01827	 -7.07063	 -6.99313	 -0.3549	 +0.1254	 +0.0584	 +0.68917	 +0.53610	 +0.14187	 +43.09412	 -37.9708	 -4.9913	 +27.3049	 -0.0002050	 -0.0007833	 -101.2903	 -2.1542	 +0.0000	 +413.8180	 12087296	 13828	 335547891	 0
0	 116	 0	 116	 0	 1571000	 1153463	 +0.00310	 -7.05072	 -6.99352	 -0.3824	 +0.1219	 +0.0268	 +0.68904	 +0.53626	 +0.14153	 +43.00000	 -37.9938	 -4.9928	 +27.3193	 -0.0002052	 -0.0007851	 -101.4268	 -2.1542	 +0.0000	 +413.8180	 12087296	 13828	 335547891	 0
0	 117	 0	 116	 0	 1571000	 1158462	 +0.01720	 -7.05711	 -6.97371	 -0.3408	 +0.1213	 +0.1056	 +0.68891	 +0.53641	 +0.14120	 +43.18824	 -38.0168	 -4.9945	 +27.3338	 -0.0002055	 -0.0007868	 -101.5634	 -2.1542	 +0.0000	 +413.8180	 12087296	 13828	 335547891	 0
0	 118	 0	 116	 0	 1571000	 1163469	 -0.00194	 -7.07730	 -6.98194	 -0.2995	 +0.1590	 +0.0371	 +0.68879	 +0.53657	 +0.14087	 +43.00000	 -38.0398	 -4.9961	 +27.3483	 -0.0002057	 -0.0007885	 -101.7001	 -2.1542	 +0.0000	 +413.8180	 12087296	 13828	 335547891	 0
0	 119	 0	 116	 0	 1571000	 1168469	 +0.00419	 -7.06769	 -7.00668	 -0.2913	 +0.1614	 -0.0178	 +0.68867	 +0.53673	 +0.14053	 +43.09412	 -38.0629	 -4.9977	 +27.3627	 -0.0002059	 -0.0007902	 -101.8369	 -2.1543	 +0.0000	 +413.8180	 12087296	 13828	 335547891	 0
0	 120	 0	 116	 0	 1571000	 1173469	 -0.00331	 -7.07150	 -6.96551	 -0.3607	 +0.0982	 +0.0022	 +0.68854	 +0.53688	 +0.14019	 +43.00000	 -38.0860	 -4.9994	 +27.3772	 -0.0002061	 -0.0007919	 -101.9738	 -2.1543	 +0.0000	 +413.8180	 12087296	 13828	 335547891	 0
0	 121	 0	 116	 0	 1571000	 1178462	 -0.04689	 -7.01962	 -6.96982	 -0.3540	 +0.1371	 +0.0373	 +0.68841	 +0.53704	 +0.13985	 +43.09412	 -38.1091	 -5.0010	 +27.3920	 -0.0002064	 -0.0007937	 -102.1107	 -2.1543	 +0.0000	 +413.8180	 12087296	 13828	 335547891	 0
0	 122	 0	 116	 0	 1571000	 1183469	 -0.02863	 -7.03088	 -6.98894	 -0.4208	 +0.0445	 +0.0268	 +0.68827	 +0.53719	 +0.13951	 +43.09412	 -38.1323	 -5.0024	 +27.4067	 -0.0002066	 -0.0007954	 -102.2477	 -2.1543	 +0.0000	 +413.8180	 12087296	 13828	 335547891	 0
0	 123	 0	 116	 0	 1571000	 1188468	 -0.02913	 -7.06923	 -6.94143	 -0.3505	 +0.0704	 -0.0176	 +0.68814	 +0.53734	 +0.13917	 +43.09412	 -38.1554	 -5.0042	 +27.4214	 -0.0002068	 -0.0007971	 -102.3848	 +2.5637	 +0.0000	 +413.8180	 12087296	 13828	 335547891	 0
0	 124	 0	 116	 0	 1571000	 1193469	 +0.01478	 -7.06519	 -6.99994	 -0.3460	 +0.2234	 +0.0598	 +0.68802	 +0.53750	 +0.13884	 +43.04706	 -38.1785	 -5.0058	 +27.4358	 -0.0002070	 -0.0007988	 -102.5219	 +2.5636	 +0.0000	 +413.8180	 12087296	 13828	 335547891	 0
0	 125	 0	 116	 0	 1571000	 1198462	 -0.02114	 -7.08888	 -7.00058	 -0.4113	 +0.1292	 +0.0603	 +0.68788	 +0.53766	 +0.13851	 +43.04706	 -38.2017	 -5.0075	 +27.4502	 -0.0002073	 -0.0008006	 -102.6591	 +2.5635	 +0.0000	 +413.8180	 12087296	 13828	 335547891	 0
0	 126	 0	 116	 0	 1571000	 1203469	 -0.04572	 -7.05377	 -6.98119	 -0.3288	 +0.1322	 +0.0204	 +0.68776	 +0.53781	 +0.13817	 +43.04706	 -38.2250	 -5.0091	 +27.4649	 -0.0002075	 -0.0008023	 -102.7964	 +2.5635	 +0.0000	 +413.8180	 12087296	 13828	 335547891	 0
0	 127	 0	 116	 0	 1571000	 1208469	 -0.00405	 -7.05976	 -7.00250	 -0.3497	 +0.0836	 -0.0768	 +0.68762	 +0.53797	 +0.13783	 +43.04706	 -38.2481	 -5.0107	 +27.4794	 -0.0002077	 -0.0008040	 -102.9338	 +2.5634	 +0.0000	 +413.8180	 12087296	 13828	 335547891	 0
0	 128	 0	 116	 0	 1571000	 1213462	 -0.04811	 -7.06994	 -7.01034	 -0.3954	 +0.0643	 +0.0236	 +0.68749	 +0.53812	 +0.13748	 +43.04706	 -38.2715	 -5.0123	 +27.4939	 -0.0002079	 -0.0008058	 -103.0712	 +2.5633	 +0.0000	 +413.8180	 12087296	 13828	 335547891	 0
0	 129	 0	 116	 0	 1571000	 1218462	 -0.05560	 -7.04303	 -7.03199	 -0.3889	 +0.1307	 +0.0084	 +0.68735	 +0.53828	 +0.13715	 +43.04706	 -38.2950	 -5.0137	 +27.5085	 -0.0002082	 -0.0008075	 -103.2087	 +2.5633	 +0.0000	 +413.8180	 12087296	 13828	 335547891	 0
0	 130	 0	 116	 0	 1571000	 1223469	 -0.00357	 -7.05489	 -7.01044	 -0.3382	 +0.1181	 +0.0295	 +0.68723	 +0.53844	 +0.13681	 +43.14118	 -38.3181	 -5.0152	 +27.5229	 -0.0002084	 -0.0008092	 -103.3463	 +2.5632	 +0.0000	 +413.8180	 12087296	 13828	 335547891	 0
0	 131	 0	 116	 0	 1571000	 1228469	 -0.05568	 -7.06094	 -6.96107	 -0.4941	 +0.1615	 -0.0508	 +0.68708	 +0.53860	 +0.13647	 +43.04706	 -38.3414	 -5.0169	 +27.5377	 -0.0002086	 -0.0008110	 -103.4839	 -2.9313	 +0.0000	 +413.8180	 12087296	 13828	 335547891	 0
0	 132	 0	 116	 0	 1571000	 1233469	 -0.05267	 -7.04198	 -7.02279	 -0.3864	 +0.1195	 -0.0129	 +0.68695	 +0.53875	 +0.13613	 +43.04706	 -38.3649	 -5.0183	 +27.5523	 -0.0002088	 -0.0008127	 -103.6217	 -2.9313	 +0.0000	 +413.8180	 12087296	 13828	 335547891	 0
0	 133	 0	 116	 0	 1571000	 1238469	 -0.01405	 -7.05970	 -6.99845	 -0.3324	 +0.1900	 -0.0087	 +0.68682	 +0.53892	 +0.13579	 +43.04706	 -38.3881	 -5.0199	 +27.5668	 -0.0002091	 -0.0008144	 -103.7595	 -2.9313	 +0.0000	 +413.8180	 12087296	 13828	 335547891	 0
0	 134	 0	 116	 0	 1571000	 1243469	 -0.00634	 -7.07067	 -6.99672	 -0.3285	 +0.1127	 +0.0022	 +0.68669	 +0.53907	 +0.13545	 +43.04706	 -38.4113	 -5.0215	 +27.5813	 -0.0002093	 -0.0008162	 -103.8973	 -2.9314	 +0.0000	 +413.8180	 12087296	 13828	 335547891	 0
0	 135	 0	 116	 0	 1571000	 1248469	 -0.03706	 -7.06418	 -6.99415	 -0.3333	 +0.0343	 -0.0479	 +0.68656	 +0.53923	 +0.13511	 +43.14118	 -38.4346	 -5.0231	 +27.5959	 -0.0002095	 -0.0008179	 -104.0353	 -2.9314	 +0.0000	 +413.8180	 12087296	 13828	 335547891	 0
0	 136	 0	 116	 0	 1571000	 1253469	 +0.00107	 -7.01782	 -6.98182	 -0.3483	 +0.0954	 +0.0692	 +0.68643	 +0.53938	 +0.13477	 +43.04706	 -38.4577	 -5.0245	 +27.6106	 -0.0002097	 -0.0008196	 -104.1733	 -2.9314	 +0.0000	 +413.8180	 12087296	 13828	 335547891	 0
0	 137	 0	 116	 0	 1571000	 1258469	 -0.02479	 -7.03520	 -6.98907	 -0.3283	 +0.0732	 -0.0722	 +0.68630	 +0.53953	 +0.13442	 +42.95294	 -38.4809	 -5.0260	 +27.6253	 -0.0002100	 -0.0008214	 -104.3114	 -2.9314	 +0.0000	 +413.8180	 12087296	 13828	 335547891	 0
0	 138	 0	 116	 0	 1571000	 1263469	 -0.02570	 -7.07409	 -7.05918	 -0.3097	 +0.1320	 -0.0786	 +0.68617	 +0.53969	 +0.13408	 +43.04706	 -38.5044	 -5.0274	 +27.6396	 -0.0002102	 -0.0008231	 -104.4495	 -2.9315	 +0.0000	 +413.8180	 12087296	 13828	 335547891	 0
0	 139	 0	 116	 0	 1571000	 1268469	 -0.05718	 -7.06188	 -6.98443	 -0.4199	 +0.1220	 +0.0434	 +0.68603	 +0.53985	 +0.13374	 +43.04706	 -38.5278	 -5.0290	 +27.6543	 -0.0002104	 -0.0008249	 -104.5878	 +3.0532	 +0.0000	 +413.8180	 12087296	 13828	 335547891	 0
0	 140	 0	 116	 0	 1571000	 1273487	 -0.01996	 -7.03650	 -6.99276	 -0.4182	 +0.1177	 -0.0144	 +0.68590	 +0.54000	 +0.13340	 +42.95294	 -38.5510	 -5.0305	 +27.6690	 -0.0002106	 -0.0008266	 -104.7261	 +3.0531	 +0.0000	 +413.8180	 12087296	 13828	 335547891	 0
0	 141	 0	 116	 0	 1571000	 1278524	 -0.04563	 -7.06041	 -6.96876	 -0.2953	 +0.0897	 +0.0508	 +0.68577	 +0.54016	 +0.13306	 +43.04706	 -38.5743	 -5.0321	 +27.6837	 -0.0002109	 -0.0008283	 -104.8645	 +3.0530	 +0.0000	 +413.8180	 12087296	 13828	 335547891	 0
0	 142	 0	 116	 0	 1571000	 1283495	 -0.05481	 -7.07952	 -7.01801	 -0.4224	 +0.0673	 +0.0755	 +0.68563	 +0.54030	 +0.13272	 +43.04706	 -38.5979	 -5.0337	 +27.6983	 -0.0002111	 -0.0008301	 -105.0029	 +3.0529	 +0.0000	 +413.8180	 12087296	 13828	 335547891	 0
0	 143	 0	 116	 0	 1571000	 1288505	 -0.00205	 -7.06580	 -7.00662	 -0.2230	 +0.0425	 +0.0111	 +0.68551	 +0.54045	 +0.13238	 +43.04706	 -38.6211	 -5.0353	 +27.7128	 -0.0002113	 -0.0008318	 -105.1414	 +3.0528	 +0.0000	 +413.8180	 12087296	 13828	 335547891	 0
0	 144	 0	 116	 0	 1571000	 1293469	 -0.00291	 -7.07824	 -6.98956	 -0.3875	 +0.1489	 +0.0342	 +0.68538	 +0.54061	 +0.13205	 +43.04706	 -38.6443	 -5.0369	 +27.7273	 -0.0002115	 -0.0008336	 -105.2801	 +3.0527	 +0.0000	 +413.8180	 12087296	 13828	 335547891	 0
0	 145	 0	 116	 0	 1571000	 1298469	 -0.02583	 -7.04284	 -7.02304	 -0.3525	 +0.1541	 -0.0297	 +0.68652	 +0.53450	 +0.13056	 +43.04706	 -38.1078	 -4.7278	 +27.3077	 -0.0001948	 -0.0007985	 -101.2109	 +3.0525	 +0.0000	 +413.8180	 12087296	 13828	 335547891	 0
0	 146	 0	 116	 0	 1571000	 1303469	 -0.03579	 -7.05699	 -7.03801	 -0.3947	 +0.1647	 +0.0067	 +0.68639	 +0.53466	 +0.13023	 +43.04706	 -38.1310	 -4.7291	 +27.3221	 -0.0001951	 -0.0008002	 -101.3475	 +3.0533	 +0.0000	 +413.8180	 12087296	 13828	 335547891	 0
0	 147	 0	 116	 0	 1571000	 1308469	 +0.01071	 -7.03109	 -6.99146	 -0.2819	 +0.1694	 -0.0239	 +0.68627	 +0.53482	 +0.12989	 +43.00000	 -38.1540	 -4.7305	 +27.3366	 -0.0001953	 -0.0008020	 -101.4842	 -3.1416	 +0.0000	 +413.8180	 12087296	 13828	 335547891	 0
0	 148	 0	 116	 0	 1571000	 1313469	 -0.03276	 -7.03994	 -6.94882	 -0.3329	 +0.1174	 +0.0022	 +0.68614	 +0.53498	 +0.12955	 +43.00000	 -38.1770	 -4.7320	 +27.3513	 -0.0001955	 -0.0008037	 -101.6209	 -3.1416	 +0.0000	 +413.8180	 12087296	 13828	 335547891	 0
0	 149	 0	 116	 0	 1571000	 1318462	 -0.02309	 -7.07644	 -6.99850	 -0.2896	 +0.1983	 +0.0126	 +0.68602	 +0.53514	 +0.12922	 +43.00000	 -38.2001	 -4.7335	 +27.3657	 -0.0001957	 -0.0008054	 -101.7577	 -3.1416	 +0.0000	 +413.8180	 12087296	 13828	 335547891	 0
0	 150	 0	 116	 0	 1571000	 1323469	 -0.05658	 -7.01171	 -6.97233	 -0.3970	 +0.0824	 +0.0634	 +0.68589	 +0.53529	 +0.12888	 +43.00000	 -38.2233	 -4.7348	 +27.3805	 -0.0001959	 -0.0008071	 -101.8945	 -3.1416	 +0.0000	 +413.8180	 12087296	 13828	 335547891	 0
0	 151	 0	 116	 0	 1571000	 1328462	 -0.00690	 -7.08067	 -7.03735	 -0.3531	 +0.1199	 -0.0693	 +0.68576	 +0.53545	 +0.12854	 +43.09412	 -38.2465	 -4.7362	 +27.3947	 -0.0001961	 -0.0008089	 -102.0315	 -3.1416	 +0.0000	 +413.8180	 12087296	 13828	 335547891	 0
0	 152	 0	 116	 0	 1571000	 1333469	 -0.01581	 -7.07877	 -6.97751	 -0.3940	 +0.0737	 -0.1148	 +0.68562	 +0.53561	 +0.12819	 +43.00000	 -38.2696	 -4.7377	 +27.4092	 -0.0001963	 -0.0008106	 -102.1685	 -3.1416	 +0.0000	 +413.8180	 12087296	 13828	 335547891	 0
0	 153	 0	 116	 0	 1571000	 1338469	 -0.07183	 -7.04822	 -7.03409	 -0.4763	 +0.1535	 -0.0022	 +0.68548	 +0.53577	 +0.12785	 +43.09412	 -38.2930	 -4.7390	 +27.4237	 -0.0001965	 -0.0008123	 -102.3056	 -3.1416	 +0.0000	 +413.8180	 12087296	 13828	 335547891	 0
0	 154	 0	 116	 0	 1571000	 1343469	 -0.04867	 -7.05331	 -7.00220	 -0.3197	 +0.1291	 +0.0903	 +0.68536	 +0.53592	 +0.12752	 +43.00000	 -38.3163	 -4.7404	 +27.4383	 -0.0001968	 -0.0008141	 -102.4427	 -3.1416	 +0.0000	 +413.8180	 12087296	 13828	 335547891	 0
0	 155	 0	 116	 0	 1571000	 1348462	 -0.03812	 -7.06042	 -7.01045	 -0.3223	 +0.0193	 +0.0312	 +0.68523	 +0.53607	 +0.12718	 +43.00000	 -38.3396	 -4.7418	 +27.4528	 -0.0001970	 -0.0008158	 -102.5800	 +2.8215	 +0.0000	 +413.8180	 12087296	 13828	 335547891	 0
0	 156	 0	 116	 0	 1571000	 1353462	 -0.00660	 -7.02079	 -6.97856	 -0.3114	 +0.1252	 +0.0813	 +0.68510	 +0.53622	 +0.12685	 +43.09412	 -38.3626	 -4.7431	 +27.4674	 -0.0001972	 -0.0008175	 -102.7173	 +2.8214	 +0.0000	 +413.8180	 12087296	 13828	 335547891	 0
0	 157	 0	 116	 0	 1571000	 1358462	 -0.04325	 -7.07232	 -6.99130	 -0.3682	 +0.1994	 -0.0009	 +0.68498	 +0.53638	 +0.12651	 +43.09412	 -38.3858	 -4.7446	 +27.4819	 -0.0001974	 -0.0008193	 -102.8546	 +2.8213	 +0.0000	 +413.8180	 12087296	 13828	 335547891	 0
0	 158	 0	 116	 0	 1571000	 1363469	 +0.01673	 -7.07096	 -6.98910	 -0.3075	 +0.1111	 -0.0253	 +0.68485	 +0.53654	 +0.12617	 +43.09412	 -38.4088	 -4.7461	 +27.4963	 -0.0001976	 -0.0008210	 -102.9921	 +2.8212	 +0.0000	 +413.8180	 12087296	 13828	 335547891	 0
0	 159	 0	 116	 0	 1571000	 1368462	 -0.02327	 -7.04081	 -6.98370	 -0.3996	 +0.0630	 +0.0283	 +0.68471	 +0.53669	 +0.12583	 +43.09412	 -38.4320	 -4.7474	 +27.5109	 -0.0001978	 -0.0008227	 -103.1296	 +2.8212	 +0.0000	 +413.8180	 12087296	 13828	 335547891	 0
0	 160	 0	 116	 0	 1571000	 1373462	 +0.00162	 -7.04261	 -6.99965	 -0.3888	 +0.1674	 +0.0769	 +0.68459	 +0.53684	 +0.12550	 +43.09412	 -38.4550	 -4.7488	 +27.5254	 -0.0001980	 -0.0008245	 -103.2672	 +2.8211	 +0.0000	 +413.8180	 12087296	 13828	 335547891	 0
0	 161	 0	 116	 0	 1571000	 1378469	 -0.04221	 -7.06796	 -6.96682	 -0.3411	 +0.1228	 +0.0143	 +0.68446	 +0.53700	 +0.12516	 +43.09412	 -38.4782	 -4.7503	 +27.5400	 -0.0001983	 -0.0008262	 -103.4048	 +2.8210	 +0.0000	 +413.8180	 12087296	 13828	 335547891	 0
0	 162	 0	 116	 0	 1571000	 1383462	 -0.00434	 -7.06391	 -6.97173	 -0.3186	 +0.1780	 -0.0208	 +0.68433	 +0.53716	 +0.12482	 +43.09412	 -38.5013	 -4.7518	 +27.5546	 -0.0001985	 -0.0008279	 -103.5426	 +2.8209	 +0.0000	 +413.8180	 12087296	 13828	 335547891	 0
0	 163	 0	 116	 0	 1571000	 1388469	 -0.03186	 -6.98820	 -7.00430	 -0.4421	 +0.1869	 -0.0296	 +0.68419	 +0.53732	 +0.12449	 +42.90588	 -38.5245	 -4.7529	 +27.5693	 -0.0001987	 -0.0008297	 -103.6804	 -2.9781	 +0.0000	 +413.8180	 12087296	 13828	 335547891	 0
0	 164	 0	 116	 0	 1571000	 1393462	 +0.01277	 -7.04770	 -6.98191	 -0.3425	 +0.1277	 -0.0572	 +0.68406	 +0.53748	 +0.12414	 +43.09412	 -38.5475	 -4.7543	 +27.5838	 -0.0001989	 -0.0008314	 -103.8183	 -2.9782	 +0.0000	 +413.8180	 12087296	 13828	 335547891	 0
0	 165	 0	 116	 0	 1571000	 1398462	 -0.08895	 -7.06313	 -7.00501	 -0.3650	 +0.0694	 -0.0312	 +0.68393	 +0.53763	 +0.12380	 +43.00000	 -38.5710	 -4.7557	 +27.5985	 -0.0001991	 -0.0008332	 -103.9562	 -2.9782	 +0.0000	 +413.8180	 12087296	 13828	 335547891	 0
0	 166	 0	 116	 0	 1571000	 1403462	 -0.03044	 -7.06093	 -7.00011	 -0.3521	 +0.0717	 -0.0022	 +0.68380	 +0.53778	 +0.12345	 +43.00000	 -38.5943	 -4.7571	 +27.6130	 -0.0001993	 -0.0008349	 -104.0943	 -2.9782	 +0.0000	 +413.8180	 12087296	 13828	 335547891	 0
0	 167	 0	 116	 0	 1571000	 1408469	 -0.05033	 -7.02292	 -7.00888	 -0.3274	 +0.1214	 +0.0386	 +0.68367	 +0.53794	 +0.12312	 +43.00000	 -38.6176	 -4.7583	 +27.6277	 -0.0001995	 -0.0008367	 -104.2324	 -2.9782	 +0.0000	 +413.8180	 12087296	 13828	 335547891	 0
0	 168	 0	 116	 0	 1571000	 1413462	 +0.00241	 -7.07435	 -6.97705	 -0.2242	 +0.0872	 +0.0111	 +0.68355	 +0.53809	 +0.12278	 +43.04706	 -38.6407	 -4.7598	 +27.6422	 -0.0001997	 -0.0008384	 -104.3705	 -2.9782	 +0.0000	 +413.8180	 12087296	 13828	 335547891	 0
0	 169	 0	 116	 0	 1571000	 1418462	 -0.05111	 -7.07202	 -7.02923	 -0.3796	 +0.2167	 +0.0145	 +0.68342	 +0.53825	 +0.12244	 +43.04706	 -38.6641	 -4.7612	 +27.6566	 -0.0002000	 -0.0008402	 -104.5088	 -2.9783	 +0.0000	 +413.8180	 12087296	 13828	 335547891	 0
0	 170	 0	 116	 0	 1571000	 1423462	 -0.02606	 -7.04940	 -6.97225	 -0.3102	 +0.0991	 +0.0265	 +0.68329	 +0.53840	 +0.12211	 +43.04706	 -38.6873	 -4.7626	 +27.6713	 -0.0002002	 -0.0008419	 -104.6471	 -2.9783	 +0.0000	 +413.8180	 12087296	 13828	 335547891	 0
0	 171	 0	 116	 0	 1571000	 1428462	 -0.01147	 -7.08161	 -6.97327	 -0.3177	 +0.1510	 +0.0813	 +0.68317	 +0.53856	 +0.12177	 +43.14118	 -38.7105	 -4.7642	 +27.6858	 -0.0002004	 -0.0008437	 -104.7855	 +2.4839	 +0.0000	 +413.8180	 12087296	 13828	 335547891	 0
0	 172	 0	 116	 0	 1571000	 1433462	 -0.03461	 -7.09279	 -7.01777	 -0.3690	 +0.0989	 -0.0113	 +0.68303	 +0.53871	 +0.12143	 +42.95294	 -38.7339	 -4.7656	 +27.7003	 -0.0002006	 -0.0008454	 -104.9240	 +2.4838	 +0.0000	 +413.8180	 12087296	 13828	 335547891	 0
0	 173	 0	 116	 0	 1571000	 1438469	 -0.03917	 -7.04613	 -7.01658	 -0.3153	 +0.1261	 +0.0219	 +0.68291	 +0.53886	 +0.12109	 +43.14118	 -38.7572	 -4.7669	 +27.7148	 -0.0002008	 -0.0008472	 -105.0625	 +2.4838	 +0.0000	 +413.8180	 12087296	 13828	 335547891	 0
0	 174	 0	 116	 0	 1571000	 1443469	 -0.01520	 -7.03977	 -7.01470	 -0.3884	 +0.1696	 -0.0222	 +0.68277	 +0.53902	 +0.12076	 +43.04706	 -38.7805	 -4.7682	 +27.7294	 -0.0002010	 -0.0008489	 -105.2011	 +2.4837	 +0.0000	 +413.8180	 12087296	 13828	 335547891	 0
0	 175	 0	 116	 0	 1571000	 1448469	 -0.04720	 -7.05911	 -6.98996	 -0.3796	 +0.1432	 +0.0221	 +0.68264	 +0.53918	 +0.12042	 +42.95294	 -38.8038	 -4.7696	 +27.7440	 -0.0002012	 -0.0008507	 -105.3398	 +2.4836	 +0.0000	 +413.0425	 12087296	 13828	 335547891	 0
0	 176	 0	 116	 0	 1571000	 1453469	 +0.00793	 -7.05780	 -7.00067	 -0.4006	 +0.1293	 +0.0755	 +0.68251	 +0.53933	 +0.12008	 +42.95294	 -38.8270	 -4.7709	 +27.7585	 -0.0002015	 -0.0008524	 -105.4786	 +2.4836	 +0.0000	 +413.0425	 12087296	 13828	 335547891	 0
0	 177	 0	 116	 0	 1571000	 1458469	 -0.04019	 -7.08222	 -6.96113	 -0.3455	 +0.1566	 +0.0158	 +0.68238	 +0.53949	 +0.11975	 +43.04706	 -38.8503	 -4.7725	 +27.7731	 -0.0002017	 -0.0008542	 -105.6174	 +2.4835	 +0.0000	 +413.0425	 12087296	 13828	 335547891	 0
0	 178	 0	 116	 0	 1571000	 1463469	 -0.04000	 -7.04958	 -6.96614	 -0.3110	 +0.0967	 +0.0282	 +0.68225	 +0.53964	 +0.11941	 +42.95294	 -38.8735	 -4.7739	 +27.7879	 -0.0002019	 -0.0008559	 -105.7563	 +2.4834	 +0.0000	 +413.0425	 12087296	 13828	 335547891	 0
0	 179	 0	 116	 0	 1571000	 1468469	 -0.02437	 -7.03612	 -7.01005	 -0.3678	 +0.0925	 +0.0084	 +0.68212	 +0.53979	 +0.11907	 +42.95294	 -38.8968	 -4.7752	 +27.8025	 -0.0002021	 -0.0008577	 -105.8953	 +2.5605	 +0.0000	 +413.0425	 12087296	 13828	 335547891	 0
0	 180	 0	 116	 0	 1571000	 1473487	 -0.03378	 -7.03332	 -6.95029	 -0.3827	 +0.1126	 -0.0311	 +0.68199	 +0.53995	 +0.11872	 +42.95294	 -38.9200	 -4.7766	 +27.8173	 -0.0002023	 -0.0008595	 -106.0343	 +2.5604	 +0.0000	 +413.0425	 12087296	 13828	 335547891	 0
0	 181	 0	 116	 0	 1571000	 1478528	 -0.03232	 -7.06173	 -7.00939	 -0.3643	 +0.1561	 -0.0785	 +0.68185	 +0.54011	 +0.11838	 +43.14118	 -38.9434	 -4.7779	 +27.8319	 -0.0002025	 -0.0008612	 -106.1734	 +2.5604	 +0.0000	 +413.0425	 12087296	 13828	 335547891	 0
0	 182	 0	 116	 0	 1571000	 1483522	 -0.03761	 -7.03932	 -6.98624	 -0.3513	 +0.1264	 -0.0863	 +0.68172	 +0.54027	 +0.11803	 +43.14118	 -38.9667	 -4.7793	 +27.8466	 -0.0002027	 -0.0008630	 -106.3126	 +2.5603	 +0.0000	 +413.0425	 12087296	 13828	 335547891	 0
0	 183	 0	 116	 0	 1571000	 1488525	 -0.00046	 -7.06342	 -6.95551	 -0.3425	 +0.1076	 -0.0085	 +0.68158	 +0.54042	 +0.11769	 +43.04706	 -38.9898	 -4.7808	 +27.8613	 -0.0002030	 -0.0008647	 -106.4519	 +2.5602	 +0.0000	 +413.0425	 12087296	 13828	 335547891	 0
0	 184	 0	 116	 0	 1571000	 1493486	 -0.07511	 -7.06023	 -7.01802	 -0.3935	 +0.1703	 +0.0906	 +0.68145	 +0.54058	 +0.11736	 +42.95294	 -39.0134	 -4.7821	 +27.8759	 -0.0002032	 -0.0008665	 -106.5912	 +2.5602	 +0.0000	 +413.0425	 12087296	 13828	 335547891	 0
0	 185	 0	 116	 0	 1571000	 1498469	 -0.01064	 -7.06780	 -6.99280	 -0.3046	 +0.0743	 -0.0450	 +0.68257	 +0.53436	 +0.11593	 +43.04706	 -38.4561	 -4.4851	 +27.4498	 -0.0001871	 -0.0008298	 -102.4750	 +2.5601	 +0.0000	 +413.0425	 12087296	 13828	 335547891	 0
0	 186	 0	 116	 0	 1571000	 1503469	 +0.00945	 -7.05634	 -6.97771	 -0.3630	 +0.1540	 +0.0206	 +0.68244	 +0.53452	 +0.11560	 +42.95294	 -38.4790	 -4.4864	 +27.4642	 -0.0001873	 -0.0008315	 -102.6123	 +2.5606	 +0.0000	 +413.0425	 12087296	 13828	 335547891	 0
0	 187	 0	 116	 0	 1571000	 1508469	 -0.01952	 -7.02461	 -6.98414	 -0.3804	 +0.0446	 -0.0737	 +0.68230	 +0.53467	 +0.11525	 +42.95294	 -38.5021	 -4.4876	 +27.4788	 -0.0001875	 -0.0008332	 -102.7496	 +2.5606	 +0.0000	 +413.0425	 12087296	 13828	 335547891	 0
0	 188	 0	 116	 0	 1571000	 1513469	 -0.04286	 -7.06184	 -6.99843	 -0.3361	 +0.0833	 +0.0676	 +0.68218	 +0.53482	 +0.11491	 +43.04706	 -38.5253	 -4.4888	 +27.4933	 -0.0001877	 -0.0008350	 -102.8871	 +2.5605	 +0.0000	 +413.0425	 12087296	 13828	 335547891	 0
0	 189	 0	 116	 0	 1571000	 1518469	 -0.00005	 -7.05157	 -6.94889	 -0.4603	 +0.1086	 -0.0340	 +0.68204	 +0.53498	 +0.11457	 +42.95294	 -38.5482	 -4.4902	 +27.5079	 -0.0001879	 -0.0008367	 -103.0246	 +2.5604	 +0.0000	 +413.0425	 12087296	 13828	 335547891	 0
0	 190	 0	 116	 0	 1571000	 1523469	 -0.03370	 -7.06701	 -6.99799	 -0.3063	 +0.1507	 -0.0345	 +0.68191	 +0.53513	 +0.11423	 +43.04706	 -38.5714	 -4.4915	 +27.5223	 -0.0001881	 -0.0008385	 -103.1622	 +2.5603	 +0.0000	 +413.0425	 12087296	 13828	 335547891	 0
0	 191	 0	 116	 0	 1571000	 1528469	 -0.02383	 -7.05847	 -7.03398	 -0.2858	 +0.0580	 +0.0387	 +0.68178	 +0.53528	 +0.11389	 +42.95294	 -38.5946	 -4.4926	 +27.5367	 -0.0001883	 -0.0008402	 -103.2998	 +2.5603	 +0.0000	 +413.3010	 12087296	 13828	 335547891	 0
0	 192	 0	 116	 0	 1571000	 1533469	 -0.00060	 -7.05495	 -6.96903	 -0.3056	 +0.1360	 +0.0052	 +0.68166	 +0.53544	 +0.11355	 +43.00000	 -38.6176	 -4.4939	 +27.5512	 -0.0001885	 -0.0008420	 -103.4375	 +2.5602	 +0.0000	 +413.3010	 12087296	 13828	 335547891	 0
0	 193	 0	 116	 0	 1571000	 1538469	 -0.01847	 -7.05502	 -7.01426	 -0.2973	 +0.1124	 -0.0330	 +0.68153	 +0.53559	 +0.11321	 +43.09412	 -38.6407	 -4.4951	 +27.5656	 -0.0001887	 -0.0008437	 -103.5753	 +2.5602	 +0.0000	 +413.3010	 12087296	 13828	 335547891	 0
0	 194	 0	 116	 0	 1571000	 1543469	 -0.04370	 -7.06085	 -6.96968	 -0.2743	 +0.0897	 +0.0370	 +0.68141	 +0.53574	 +0.11287	 +43.00000	 -38.6639	 -4.4964	 +27.5802	 -0.0001889	 -0.0008455	 -103.7132	 +2.5601	 +0.0000	 +413.3010	 12087296	 13828	 335547891	 0
0	 195	 0	 116	 0	 1571000	 1548462	 -0.01369	 -7.08294	 -6.93534	 -0.3397	 +0.1610	 +0.0097	 +0.68128	 +0.53590	 +0.11253	 +43.09412	 -38.6869	 -4.4980	 +27.5948	 -0.0001891	 -0.0008472	 -103.8511	 +2.5600	 +0.0000	 +413.3010	 12087296	 13828	 335547891	 0
0	 196	 0	 116	 0	 1571000	 1553462	 -0.00007	 -7.06060	 -6.97373	 -0.3951	 +0.1120	 +0.0404	 +0.68115	 +0.53605	 +0.11220	 +43.09412	 -38.7099	 -4.4993	 +27.6093	 -0.0001893	 -0.0008490	 -103.9891	 +2.5600	 +0.0000	 +413.3010	 12087296	 13828	 335547891	 0
0	 197	 0	 116	 0	 1571000	 1558469	 +0.01038	 -7.04585	 -6.97097	 -0.3134	 +0.1955	 -0.0177	 +0.68103	 +0.53621	 +0.11186	 +43.00000	 -38.7329	 -4.5005	 +27.6238	 -0.0001895	 -0.0008507	 -104.1272	 +2.5599	 +0.0000	 +413.3010	 12087296	 13828	 335547891	 0
0	 198	 0	 116	 0	 1571000	 1563462	 -0.00546	 -7.04786	 -6.97475	 -0.3070	 +0.0671	 +0.0190	 +0.68090	 +0.53636	 +0.11152	 +43.09412	 -38.7559	 -4.5017	 +27.6384	 -0.0001897	 -0.0008525	 -104.2654	 +2.5598	 +0.0000	 +413.3010	 12087296	 13828	 335547891	 0
0	 199	 0	 116	 0	 1571000	 1568462	 -0.01532	 -7.08400	 -6.98517	 -0.3348	 +0.0819	 -0.0663	 +0.68077	 +0.53652	 +0.11117	 +43.09412	 -38.7791	 -4.5031	 +27.6528	 -0.0001899	 -0.0008542	 -104.4036	 +2.5598	 +0.0000	 +413.3010	 12087296	 13828	 335547891	 0
0	 200	 0	 116	 0	 1571000	 1573462	 -0.03173	 -7.07847	 -6.99429	 -0.3722	 +0.1171	 +0.0175	 +0.68063	 +0.53667	 +0.11083	 +43.00000	 -38.8023	 -4.5044	 +27.6673	 -0.0001901	 -0.0008560	 -104.5419	 +2.5597	 +0.0000	 +413.3010	 12087296	 13828	 335547891	 0
0	 201	 0	 116	 0	 1571000	 1578463	 -0.02221	 -7.05942	 -6.97621	 -0.4143	 +0.1584	 +0.0146	 +0.68050	 +0.53683	 +0.11049	 +43.00000	 -38.8254	 -4.5057	 +27.6819	 -0.0001903	 -0.0008577	 -104.6803	 +2.5596	 +0.0000	 +413.3010	 12087296	 13828	 335547891	 0
0	 202	 0	 116	 0	 1571000	 1583469	 -0.01788	 -7.05507	 -6.97231	 -0.3404	 +0.1418	 +0.0251	 +0.68037	 +0.53698	 +0.11016	 +43.09412	 -38.8486	 -4.5070	 +27.6965	 -0.0001905	 -0.0008595	 -104.8187	 +2.5596	 +0.0000	 +413.3010	 12087296	 13828	 335547891	 0
0	 203	 0	 116	 0	 1571000	 1588462	 -0.02429	 -7.05416	 -7.02102	 -0.3830	 +0.0922	 +0.0328	 +0.68024	 +0.53713	 +0.10982	 +43.00000	 -38.8718	 -4.5081	 +27.7109	 -0.0001907	 -0.0008612	 -104.9572	 -2.9790	 +0.0000	 +413.3010	 12087296	 13828	 335547891	 0
0	 204	 0	 116	 0	 1571000	 1593469	 -0.01971	 -7.05986	 -6.94942	 -0.3598	 +0.0823	 -0.0295	 +0.68011	 +0.53729	 +0.10947	 +43.00000	 -38.8949	 -4.5095	 +27.7256	 -0.0001909	 -0.0008630	 -105.0958	 -2.9790	 +0.0000	 +413.3010	 12087296	 13828	 335547891	 0
0	 205	 0	 116	 0	 1571000	 1598463	 -0.04097	 -7.05801	 -7.00558	 -0.4214	 +0.1176	 -0.0190	 +0.67997	 +0.53744	 +0.10913	 +43.00000	 -38.9182	 -4.5107	 +27.7401	 -0.0001911	 -0.0008648	 -105.2345	 -2.9790	 +0.0000	 +413.3010	 12087296	 13828	 335547891	 0
0	 206	 0	 116	 0	 1571000	 1603462	 -0.03739	 -7.04910	 -7.04785	 -0.3374	 +0.1510	 +0.0433	 +0.67984	 +0.53760	 +0.10880	 +43.00000	 -38.9416	 -4.5118	 +27.7545	 -0.0001913	 -0.0008665	 -105.3732	 -2.9790	 +0.0000	 +413.3010	 12087296	 13828	 335547891	 0
0	 207	 0	 116	 0	 1571000	 1608462	 -0.03915	 -7.03479	 -6.98181	 -0.3315	 +0.0837	 -0.0784	 +0.67971	 +0.53775	 +0.10845	 +43.00000	 -38.9648	 -4.5129	 +27.7692	 -0.0001915	 -0.0008683	 -105.5120	 -2.9791	 +0.0000	 +414.4213	 12087296	 13828	 335547891	 0
0	 208	 0	 116	 0	 1571000	 1613469	 -0.04909	 -7.04622	 -6.96499	 -0.3889	 +0.0740	 +0.0359	 +0.67957	 +0.53790	 +0.10811	 +43.09412	 -38.9880	 -4.5142	 +27.7839	 -0.0001917	 -0.0008700	 -105.6509	 -2.9791	 +0.0000	 +414.4213	 12087296	 13828	 335547891	 0
0	 209	 0	 116	 0	 1571000	 1618462	 -0.03505	 -7.06606	 -6.96836	 -0.3059	 +0.1096	 +0.0128	 +0.67945	 +0.53805	 +0.10777	 +43.00000	 -39.0113	 -4.5155	 +27.7985	 -0.0001919	 -0.0008718	 -105.7899	 -2.9791	 +0.0000	 +414.4213	 12087296	 13828	 335547891	 0
0	 210	 0	 116	 0	 1571000	 1623469	 -0.02124	 -7.05211	 -6.98451	 -0.2946	 +0.1901	 +0.0019	 +0.67932	 +0.53821	 +0.10743	 +43.00000	 -39.0345	 -4.5168	 +27.8131	 -0.0001921	 -0.0008736	 -105.9289	 -2.9791	 +0.0000	 +414.4213	 12087296	 13828	 335547891	 0
0	 211	 0	 116	 0	 1571000	 1628469	 -0.03974	 -7.09783	 -7.01213	 -0.3933	 +0.1324	 -0.0161	 +0.67919	 +0.53837	 +0.10709	 +43.00000	 -39.0578	 -4.5181	 +27.8276	 -0.0001923	 -0.0008753	 -106.0680	 +2.9695	 +0.0000	 +414.4213	 12087296	 13828	 335547891	 0
0	 212	 0	 116	 0	 1571000	 1633462	 -0.02675	 -7.04520	 -7.01917	 -0.3693	 +0.2196	 +0.0281	 +0.67906	 +0.53853	 +0.10676	 +43.09412	 -39.0811	 -4.5192	 +27.8421	 -0.0001925	 -0.0008771	 -106.2072	 +2.9694	 +0.0000	 +414.4213	 12087296	 13828	 335547891	 0
0	 213	 0	 116	 0	 1571000	 1638469	 -0.01684	 -7.04401	 -6.94297	 -0.3091	 +0.0925	 +0.0356	 +0.67893	 +0.53868	 +0.10642	 +43.00000	 -39.1042	 -4.5205	 +27.8568	 -0.0001927	 -0.0008789	 -106.3464	 +2.9693	 +0.0000	 +414.4213	 12087296	 13828	 335547891	 0
0	 214	 0	 116	 0	 1571000	 1643463	 -0.03278	 -7.05708	 -6.98231	 -0.3722	 +0.0758	 -0.0220	 +0.67880	 +0.53883	 +0.10607	 +43.04706	 -39.1275	 -4.5217	 +27.8714	 -0.0001929	 -0.0008806	 -106.4857	 +2.9693	 +0.0000	 +414.4213	 12087296	 13828	 335547891	 0
0	 215	 0	 116	 0	 1571000	 1648461	 -0.03335	 -7.03993	 -6.98271	 -0.2533	 +0.1819	 -0.0529	 +0.67867	 +0.53899	 +0.10573	 +43.04706	 -39.1507	 -4.5229	 +27.8861	 -0.0001931	 -0.0008824	 -106.6251	 +2.9692	 +0.0000	 +414.4213	 12087296	 13828	 335547891	 0
0	 216	 0	 116	 0	 1571000	 1653463	 -0.04187	 -7.05767	 -6.96661	 -0.4823	 +0.1458	 +0.0011	 +0.67853	 +0.53915	 +0.10539	 +42.95294	 -39.1740	 -4.5242	 +27.9008	 -0.0001933	 -0.0008842	 -106.7646	 +2.9692	 +0.0000	 +414.4213	 12087296	 13828	 335547891	 0
0	 217	 0	 116	 0	 1571000	 1658469	 -0.00867	 -7.06967	 -6.98180	 -0.3652	 +0.2191	 +0.0584	 +0.67840	 +0.53930	 +0.10506	 +43.04706	 -39.1972	 -4.5255	 +27.9154	 -0.0001935	 -0.0008859	 -106.9041	 +2.9691	 +0.0000	 +414.4213	 12087296	 13828	 335547891	 0
0	 218	 0	 116	 0	 1571000	 1663469	 -0.04962	 -7.05102	 -6.98417	 -0.4040	 +0.1077	 +0.0039	 +0.67827	 +0.53946	 +0.10472	 +42.95294	 -39.2206	 -4.5267	 +27.9301	 -0.0001937	 -0.0008877	 -107.0438	 +2.9691	 +0.0000	 +414.4213	 12087296	 13828	 335547891	 0
0	 219	 0	 116	 0	 1571000	 1668469	 -0.02796	 -7.06598	 -7.00702	 -0.2475	 +0.1539	 +0.0049	 +0.67815	 +0.53961	 +0.10438	 +43.04706	 -39.2439	 -4.5279	 +27.9446	 -0.0001939	 -0.0008895	 -107.1834	 -2.9337	 +0.0000	 +414.4213	 12087296	 13828	 335547891	 0
0	 220	 0	 116	 0	 1571000	 1673479	 -0.06492	 -7.03916	 -6.95485	 -0.3607	 +0.2116	 -0.0055	 +0.67802	 +0.53977	 +0.10405	 +43.04706	 -39.2672	 -4.5291	 +27.9594	 -0.0001942	 -0.0008913	 -107.3232	 -2.9337	 +0.0000	 +414.4213	 12087296	 13828	 335547891	 0
0	 221	 0	 116	 0	 1571000	 1678528	 -0.02311	 -7.06697	 -6.98327	 -0.3479	 +0.0483	 +0.0297	 +0.67788	 +0.53992	 +0.10370	 +43.00000	 -39.2905	 -4.5304	 +27.9740	 -0.0001944	 -0.0008930	 -107.4630	 -2.9337	 +0.0000	 +414.4213	 12087296	 13828	 335547891	 0
0	 222	 0	 116	 0	 1571000	 1683500	 -0.01027	 -7.06501	 -7.00915	 -0.2769	 +0.0825	 -0.0070	 +0.67776	 +0.54007	 +0.10336	 +42.85882	 -39.3138	 -4.5316	 +27.9885	 -0.0001946	 -0.0008948	 -107.6029	 -2.9337	 +0.0000	 +414.4213	 12087296	 13828	 335547891	 0
0	 223	 0	 116	 0	 1572000	 1688513	 -0.00689	 -7.04170	 -6.95804	 -0.3992	 +0.1614	 +0.0724	 +0.67762	 +0.54022	 +0.10303	 +43.04706	 -39.3369	 -4.5328	 +28.0032	 -0.0001948	 -0.0008966	 -107.7429	 -2.9338	 +0.0000	 +413.8180	 12087296	 13828	 335547891	 0
0	 224	 0	 116	 0	 1572000	 1693485	 -0.02488	 -7.10394	 -7.02371	 -0.3733	 +0.1159	 +0.0356	 +0.67749	 +0.54038	 +0.10269	 +43.04706	 -39.3603	 -4.5341	 +28.0176	 -0.0001950	 -0.0008984	 -107.8830	 -2.9338	 +0.0000	 +413.8180	 12087296	 13828	 335547891	 0
0	 225	 0	 116	 0	 1572000	 1698469	 -0.03734	 -7.04716	 -7.03441	 -0.3485	 +0.1691	 -0.0556	 +0.67858	 +0.53406	 +0.10133	 +43.04706	 -38.7829	 -4.2486	 +27.5848	 -0.0001794	 -0.0008600	 -103.7192	 -2.9338	 +0.0000	 +413.8180	 12087296	 13828	 335547891	 0
0	 226	 0	 116	 0	 1572000	 1703469	 -0.00652	 -7.05839	 -7.01785	 -0.2557	 +0.1411	 -0.0542	 +0.67846	 +0.53422	 +0.10098	 +43.04706	 -38.8059	 -4.2497	 +27.5991	 -0.0001796	 -0.0008618	 -103.8571	 -2.9339	 +0.0000	 +413.8180	 12087296	 13828	 335547891	 0
0	 227	 0	 116	 0	 1572000	 1708469	 -0.03326	 -7.06472	 -6.99336	 -0.4404	 +0.1779	 -0.0249	 +0.67832	 +0.53438	 +0.10065	 +43.04706	 -38.8291	 -4.2508	 +27.6136	 -0.0001798	 -0.0008635	 -103.9952	 -2.8102	 +0.0000	 +413.8180	 12087296	 13828	 335547891	 0
0	 228	 0	 116	 0	 1572000	 1713469	 -0.02708	 -7.05275	 -6.99521	 -0.3045	 +0.1847	 -0.0223	 +0.67820	 +0.53454	 +0.10031	 +43.04706	 -38.8522	 -4.2518	 +27.6281	 -0.0001800	 -0.0008653	 -104.1333	 -2.8101	 +0.0000	 +413.8180	 12087296	 13828	 335547891	 0
0	 229	 0	 116	 0	 1572000	 1718469	 -0.06199	 -7.06622	 -6.99355	 -0.4517	 +0.1265	 -0.0067	 +0.67806	 +0.53469	 +0.09997	 +43.09412	 -38.8755	 -4.2530	 +27.6426	 -0.0001802	 -0.0008670	 -104.2714	 -2.8100	 +0.0000	 +413.8180	 12087296	 13828	 335547891	 0
0	 230	 0	 116	 0	 1572000	 1723469	 -0.05653	 -7.05748	 -6.94029	 -0.3281	 +0.1696	 +0.0445	 +0.67793	 +0.53485	 +0.09963	 +43.09412	 -38.8986	 -4.2542	 +27.6573	 -0.0001804	 -0.0008688	 -104.4097	 -2.8100	 +0.0000	 +413.8180	 12087296	 13828	 335547891	 0
0	 231	 0	 116	 0	 1572000	 1728469	 +0.00062	 -7.04782	 -7.02493	 -0.3485	 +0.1521	 -0.0176	 +0.67780	 +0.53500	 +0.09929	 +43.00000	 -38.9217	 -4.2552	 +27.6716	 -0.0001806	 -0.0008705	 -104.5480	 -2.8099	 +0.0000	 +413.8180	 12087296	 13828	 335547891	 0
0	 232	 0	 116	 0	 1572000	 1733462	 -0.01754	 -7.03075	 -6.97933	 -0.2077	 +0.1759	 +0.0885	 +0.67769	 +0.53515	 +0.09896	 +43.09412	 -38.9448	 -4.2562	 +27.6862	 -0.0001808	 -0.0008723	 -104.6864	 -2.8098	 +0.0000	 +413.8180	 12087296	 13828	 335547891	 0
0	 233	 0	 116	 0	 1572000	 1738469	 -0.03490	 -7.02135	 -6.99119	 -0.3457	 +0.0691	 +0.0174	 +0.67756	 +0.53530	 +0.09862	 +43.18824	 -38.9679	 -4.2571	 +27.7008	 -0.0001810	 -0.0008741	 -104.8249	 -2.8098	 +0.0000	 +413.8180	 12087296	 13828	 335547891	 0
0	 234	 0	 116	 0	 1572000	 1743462	 -0.03419	 -7.07322	 -7.00760	 -0.3786	 +0.1198	 +0.0099	 +0.67743	 +0.53546	 +0.09828	 +43.00000	 -38.9911	 -4.2582	 +27.7152	 -0.0001812	 -0.0008758	 -104.9634	 -2.8097	 +0.0000	 +413.8180	 12087296	 13828	 335547891	 0
0	 235	 0	 116	 0	 1572000	 1748462	 -0.02428	 -7.05321	 -7.01863	 -0.4151	 +0.2036	 +0.0068	 +0.67730	 +0.53562	 +0.09795	 +43.09412	 -39.0143	 -4.2592	 +27.7296	 -0.0001814	 -0.0008776	 -105.1020	 +2.9373	 +0.0000	 +413.8180	 12087296	 13828	 335547891	 0
0	 236	 0	 116	 0	 1572000	 1753469	 -0.00644	 -7.04822	 -6.99795	 -0.3687	 +0.1513	 +0.0341	 +0.67717	 +0.53577	 +0.09761	 +43.00000	 -39.0374	 -4.2602	 +27.7441	 -0.0001815	 -0.0008794	 -105.2407	 +2.9372	 +0.0000	 +413.8180	 12087296	 13828	 335547891	 0
0	 237	 0	 116	 0	 1572000	 1758463	 -0.03073	 -7.06409	 -6.97164	 -0.3504	 +0.1456	 -0.0405	 +0.67704	 +0.53593	 +0.09727	 +43.00000	 -39.0605	 -4.2614	 +27.7587	 -0.0001817	 -0.0008811	 -105.3795	 +2.9372	 +0.0000	 +413.8180	 12087296	 13828	 335547891	 0
0	 238	 0	 116	 0	 1572000	 1763462	 -0.02521	 -7.03750	 -6.98321	 -0.3541	 +0.0940	 +0.0753	 +0.67691	 +0.53607	 +0.09693	 +43.00000	 -39.0836	 -4.2624	 +27.7732	 -0.0001819	 -0.0008829	 -105.5183	 +2.9371	 +0.0000	 +413.8180	 12087296	 13828	 335547891	 0
0	 239	 0	 116	 0	 1572000	 1768469	 -0.01657	 -7.02554	 -6.96123	 -0.2301	 +0.0445	 -0.0208	 +0.67678	 +0.53622	 +0.09659	 +43.09412	 -39.1067	 -4.2634	 +27.7879	 -0.0001821	 -0.0008847	 -105.6572	 +2.9371	 +0.0000	 +413.8180	 12087296	 13828	 335547891	 0
0	 240	 0	 116	 0	 1572000	 1773469	 -0.03382	 -7.05659	 -7.00807	 -0.2880	 +0.2000	 -0.0011	 +0.67666	 +0.53638	 +0.09625	 +43.00000	 -39.1299	 -4.2644	 +27.8024	 -0.0001823	 -0.0008864	 -105.7962	 +2.9371	 +0.0000	 +413.8180	 12087296	 13828	 335547891	 0
0	 241	 0	 116	 0	 1572000	 1778463	 -0.00085	 -7.03126	 -6.99111	 -0.4430	 +0.0909	 -0.0050	 +0.67652	 +0.53653	 +0.09591	 +43.00000	 -39.1529	 -4.2654	 +27.8169	 -0.0001825	 -0.0008882	 -105.9352	 +2.9370	 +0.0000	 +413.8180	 12087296	 13828	 335547891	 0
0	 242	 0	 116	 0	 1572000	 1783462	 -0.00122	 -7.05170	 -6.99733	 -0.3190	 +0.0903	 -0.0662	 +0.67639	 +0.53669	 +0.09556	 +43.00000	 -39.1760	 -4.2664	 +27.8314	 -0.0001827	 -0.0008900	 -106.0743	 +2.9370	 +0.0000	 +413.8180	 12087296	 13828	 335547891	 0
0	 243	 0	 116	 0	 1572000	 1788462	 -0.04098	 -7.05944	 -7.00988	 -0.3867	 +0.0964	 -0.0906	 +0.67625	 +0.53684	 +0.09521	 +43.09412	 -39.1993	 -4.2674	 +27.8459	 -0.0001829	 -0.0008917	 -106.2135	 -2.7613	 +0.0000	 +413.8180	 12087296	 13828	 335547891	 0
0	 244	 0	 116	 0	 1572000	 1793469	 -0.00350	 -7.05727	 -6.99087	 -0.2929	 +0.2669	 +0.0384	 +0.67613	 +0.53701	 +0.09488	 +43.09412	 -39.2224	 -4.2685	 +27.8603	 -0.0001831	 -0.0008935	 -106.3528	 -2.7612	 +0.0000	 +413.8180	 12087296	 13828	 335547891	 0
0	 245	 0	 116	 0	 1572000	 1798462	 -0.01173	 -7.04506	 -6.97999	 -0.4767	 +0.1147	 -0.0005	 +0.67599	 +0.53716	 +0.09454	 +43.00000	 -39.2455	 -4.2695	 +27.8749	 -0.0001833	 -0.0008953	 -106.4921	 -2.7612	 +0.0000	 +413.8180	 12087296	 13828	 335547891	 0
0	 246	 0	 116	 0	 1572000	 1803462	 -0.03718	 -7.07193	 -7.02401	 -0.3791	 +0.0577	 +0.0710	 +0.67586	 +0.53730	 +0.09420	 +42.90588	 -39.2689	 -4.2706	 +27.8893	 -0.0001835	 -0.0008971	 -106.6316	 -2.7612	 +0.0000	 +413.8180	 12087296	 13828	 335547891	 0
0	 247	 0	 116	 0	 1572000	 1808462	 -0.01600	 -7.05922	 -7.00653	 -0.3277	 +0.1792	 +0.0872	 +0.67573	 +0.53746	 +0.09387	 +43.09412	 -39.2921	 -4.2716	 +27.9038	 -0.0001836	 -0.0008988	 -106.7710	 -2.7612	 +0.0000	 +413.8180	 12087296	 13828	 335547891	 0
0	 248	 0	 116	 0	 1572000	 1813462	 -0.00069	 -7.04494	 -6.98473	 -0.3601	 -0.0177	 +0.0268	 +0.67560	 +0.53760	 +0.09352	 +43.09412	 -39.3151	 -4.2726	 +27.9183	 -0.0001838	 -0.0009006	 -106.9106	 -2.7612	 +0.0000	 +413.8180	 12087296	 13828	 335547891	 0
0	 249	 0	 116	 0	 1572000	 1818462	 -0.03629	 -7.03326	 -6.99506	 -0.3367	 +0.1457	 -0.0344	 +0.67547	 +0.53775	 +0.09318	 +43.00000	 -39.3384	 -4.2735	 +27.9329	 -0.0001840	 -0.0009024	 -107.0502	 -2.7612	 +0.0000	 +413.8180	 12087296	 13828	 335547891	 0
0	 250	 0	 116	 0	 1572000	 1823462	 -0.04007	 -7.05378	 -7.00805	 -0.4088	 +0.1241	 +0.0404	 +0.67533	 +0.53791	 +0.09284	 +43.09412	 -39.3617	 -4.2745	 +27.9474	 -0.0001842	 -0.0009042	 -107.1899	 -2.7612	 +0.0000	 +413.8180	 12087296	 13828	 335547891	 0
0	 251	 0	 116	 0	 1572000	 1828469	 +0.00145	 -7.06580	 -6.95843	 -0.3287	 +0.1431	 +0.0098	 +0.67520	 +0.53806	 +0.09250	 +43.00000	 -39.3848	 -4.2757	 +27.9620	 -0.0001844	 -0.0009060	 -107.3297	 -3.1416	 +0.0000	 +413.8180	 12087296	 13828	 335547891	 0
0	 252	 0	 116	 0	 1572000	 1833462	 +0.00365	 -7.05256	 -6.98626	 -0.3253	 +0.1450	 +0.0220	 +0.67508	 +0.53821	 +0.09217	 +43.09412	 -39.4078	 -4.2767	 +27.9765	 -0.0001846	 -0.0009077	 -107.4695	 -3.1416	 +0.0000	 +413.8180	 12087296	 13828	 335547891	 0
0	 253	 0	 116	 0	 1572000	 1838462	 -0.04142	 -7.04083	 -6.97439	 -0.3142	 +0.1548	 +0.0172	 +0.67495	 +0.53837	 +0.09183	 +43.09412	 -39.4311	 -4.2778	 +27.9912	 -0.0001848	 -0.0009095	 -107.6095	 -3.1416	 +0.0000	 +413.8180	 12087296	 13828	 335547891	 0
0	 254	 0	 116	 0	 1572000	 1843462	 -0.01980	 -7.06222	 -6.98332	 -0.3978	 +0.0741	 +0.0101	 +0.67481	 +0.53852	 +0.09148	 +43.00000	 -39.4543	 -4.2788	 +28.0058	 -0.0001850	 -0.0009113	 -107.7495	 -3.1416	 +0.0000	 +413.8180	 12087296	 13828	 335547891	 0
0	 255	 0	 116	 0	 1572000	 1848462	 -0.00435	 -7.07927	 -6.98345	 -0.4252	 +0.1858	 -0.0554	 +0.67467	 +0.53868	 +0.09114	 +43.00000	 -39.4775	 -4.2800	 +28.0202	 -0.0001852	 -0.0009131	 -107.8895	 -3.1416	 +0.0000	 +413.8180	 12087296	 13828	 335547891	 0
0	 0	 0	 116	 0	 1572000	 1853469	 -0.02704	 -7.03978	 -6.97539	 -0.3764	 +0.1604	 -0.0238	 +0.67454	 +0.53883	 +0.09080	 +43.09412	 -39.5007	 -4.2810	 +28.0349	 -0.0001854	 -0.0009149	 -108.0297	 -3.1416	 +0.0000	 +413.8180	 12087296	 13828	 335547891	 0
0	 1	 0	 116	 0	 1572000	 1858469	 -0.05144	 -7.07908	 -7.00522	 -0.3388	 +0.1189	 +0.0464	 +0.67441	 +0.53898	 +0.09046	 +43.00000	 -39.5241	 -4.2821	 +28.0494	 -0.0001856	 -0.0009167	 -108.1699	 -3.1416	 +0.0000	 +413.8180	 12087296	 13828	 335547891	 0
0	 2	 0	 116	 0	 1572000	 1863469	 -0.03061	 -7.07374	 -7.08033	 -0.3499	 +0.1368	 +0.0083	 +0.67428	 +0.53914	 +0.09012	 +43.09412	 -39.5476	 -4.2829	 +28.0637	 -0.0001858	 -0.0009184	 -108.3102	 -3.1416	 +0.0000	 +413.8180	 12087296	 13828	 335547891	 0
0	 3	 0	 116	 0	 1572000	 1868469	 -0.01837	 -7.05408	 -6.97941	 -0.3846	 +0.1365	 +0.0266	 +0.67415	 +0.53929	 +0.08978	 +43.09412	 -39.5708	 -4.2840	 +28.0783	 -0.0001860	 -0.0009202	 -108.4505	 +3.0774	 +0.0000	 +413.8180	 12087296	 13828	 335547891	 0
0	 4	 0	 116	 0	 1572000	 1873492	 +0.00216	 -7.04019	 -6.98143	 -0.2543	 +0.2662	 +0.1068	 +0.67403	 +0.53944	 +0.08946	 +43.00000	 -39.5939	 -4.2850	 +28.0929	 -0.0001861	 -0.0009220	 -108.5909	 +3.0773	 +0.0000	 +413.8180	 12087296	 13828	 335547891	 0
0	 5	 0	 116	 0	 1572000	 1878496	 -0.01843	 -7.04838	 -6.98563	 -0.3075	 +0.1188	 -0.0146	 +0.67390	 +0.53960	 +0.08912	 +43.09412	 -39.6171	 -4.2860	 +28.1075	 -0.0001863	 -0.0009238	 -108.7314	 +3.0772	 +0.0000	 +413.8180	 12087296	 13828	 335547891	 0
0	 6	 0	 116	 0	 1572000	 1883516	 -0.01086	 -7.02792	 -6.97660	 -0.3318	 +0.1952	 -0.0283	 +0.67377	 +0.53976	 +0.08878	 +43.00000	 -39.6403	 -4.2869	 +28.1222	 -0.0001865	 -0.0009256	 -108.8720	 +3.0771	 +0.0000	 +413.8180	 12087296	 13828	 335547891	 0
0	 7	 0	 116	 0	 1572000	 1888541	 -0.00849	 -7.08082	 -7.06338	 -0.3489	 +0.0994	 +0.0222	 +0.67364	 +0.53991	 +0.08844	 +43.00000	 -39.6637	 -4.2878	 +28.1364	 -0.0001867	 -0.0009274	 -109.0127	 +3.0771	 +0.0000	 +413.8180	 12087296	 13828	 335547891	 0
0	 8	 0	 116	 0	 1572000	 1893489	 -0.02945	 -7.02470	 -6.93351	 -0.3148	 +0.1634	 +0.0174	 +0.67351	 +0.54006	 +0.08810	 +42.95294	 -39.6869	 -4.2889	 +28.1513	 -0.0001869	 -0.0009292	 -109.1534	 +3.0770	 +0.0000	 +413.8180	 12087296	 13828	 335547891	 0
0	 9	 0	 116	 0	 1572000	 1898469	 -0.00974	 -7.07881	 -7.01685	 -0.4132	 +0.1259	 -0.0219	 +0.67458	 +0.53363	 +0.08680	 +42.95294	 -39.0892	 -4.0151	 +27.7117	 -0.0001720	 -0.0008892	 -104.9417	 +3.0769	 +0.0000	 +413.8180	 12087296	 13828	 335547891	 0
0	 10	 0	 116	 0	 1572000	 1903469	 -0.02356	 -7.02612	 -7.04011	 -0.3320	 +0.1551	 -0.0329	 +0.67445	 +0.53379	 +0.08646	 +43.04706	 -39.1124	 -4.0157	 +27.7260	 -0.0001721	 -0.0008910	 -105.0803	 +3.0775	 +0.0000	 +413.8180	 12087296	 13828	 335547891	 0
0	 11	 0	 116	 0	 1572000	 1908469	 -0.00916	 -7.07924	 -6.99480	 -0.3782	 +0.0955	 +0.0845	 +0.67432	 +0.53394	 +0.08612	 +43.04706	 -39.1354	 -4.0167	 +27.7404	 -0.0001723	 -0.0008927	 -105.2189	 -3.1416	 +0.0000	 +413.8180	 12087296	 13828	 335547891	 0
0	 12	 0	 116	 0	 1572000	 1913469	 -0.04252	 -7.04665	 -7.01134	 -0.2455	 +0.0442	 -0.0466	 +0.67420	 +0.53409	 +0.08577	 +43.04706	 -39.1586	 -4.0176	 +27.7548	 -0.0001725	 -0.0008945	 -105.3577	 -3.1416	 +0.0000	 +413.8180	 12087296	 13828	 335547891	 0
0	 13	 0	 116	 0	 1572000	 1918469	 -0.02419	 -7.07082	 -7.02202	 -0.3286	 +0.0958	 -0.0693	 +0.67406	 +0.53424	 +0.08543	 +43.14118	 -39.1818	 -4.0185	 +27.7691	 -0.0001727	 -0.0008963	 -105.4965	 -3.1416	 +0.0000	 +413.8180	 12087296	 13828	 335547891	 0
0	 14	 0	 116	 0	 1572000	 1923469	 -0.04361	 -7.08992	 -6.98656	 -0.3027	 +0.0639	 -0.0191	 +0.67394	 +0.53439	 +0.08508	 +43.04706	 -39.2050	 -4.0195	 +27.7836	 -0.0001729	 -0.0008981	 -105.6354	 -3.1416	 +0.0000	 +413.8180	 12087296	 13828	 335547891	 0
0	 15	 0	 116	 0	 1572000	 1928469	 -0.02932	 -7.07644	 -7.00175	 -0.3351	 +0.1135	 +0.0219	 +0.67381	 +0.53454	 +0.08474	 +43.04706	 -39.2282	 -4.0205	 +27.7979	 -0.0001730	 -0.0008998	 -105.7743	 -3.1416	 +0.0000	 +413.8180	 12087296	 13828	 335547891	 0
0	 16	 0	 116	 0	 1572000	 1933469	 +0.01769	 -7.14021	 -6.99085	 -0.3550	 +0.0595	 +0.0387	 +0.67368	 +0.53469	 +0.08440	 +42.95294	 -39.2512	 -4.0217	 +27.8121	 -0.0001732	 -0.0009016	 -105.9133	 -3.1416	 +0.0000	 +413.8180	 12087296	 13828	 335547891	 0
0	 17	 0	 116	 0	 1572000	 1938469	 -0.02844	 -7.06191	 -6.97057	 -0.3429	 +0.1135	 -0.0995	 +0.67354	 +0.53485	 +0.08405	 +42.95294	 -39.2743	 -4.0227	 +27.8266	 -0.0001734	 -0.0009034	 -106.0524	 -3.1416	 +0.0000	 +413.8180	 12087296	 13828	 335547891	 0
0	 18	 0	 116	 0	 1572000	 1943469	 -0.05114	 -7.05912	 -7.02289	 -0.4343	 +0.0721	 +0.0223	 +0.67340	 +0.53499	 +0.08371	 +42.95294	 -39.2976	 -4.0235	 +27.8410	 -0.0001736	 -0.0009052	 -106.1916	 -3.1416	 +0.0000	 +413.8180	 12087296	 13828	 335547891	 0
0	 19	 0	 116	 0	 1572000	 1948469	 -0.00829	 -7.07208	 -7.01099	 -0.3409	 +0.0847	 -0.0176	 +0.67327	 +0.53514	 +0.08336	 +43.04706	 -39.3207	 -4.0244	 +27.8554	 -0.0001738	 -0.0009069	 -106.3308	 +2.9394	 +0.0000	 +413.8180	 12087296	 13828	 335547891	 0
0	 20	 0	 116	 0	 1572000	 1953469	 -0.02846	 -7.05604	 -6.98938	 -0.2607	 +0.1526	 +0.0141	 +0.67315	 +0.53530	 +0.08302	 +43.04706	 -39.3439	 -4.0254	 +27.8698	 -0.0001739	 -0.0009087	 -106.4702	 +2.9394	 +0.0000	 +413.8180	 12087296	 13828	 335547891	 0
0	 21	 0	 116	 0	 1572000	 1958469	 -0.01646	 -7.06504	 -6.99812	 -0.3740	 +0.1215	 -0.0083	 +0.67302	 +0.53545	 +0.08268	 +43.04706	 -39.3670	 -4.0263	 +27.8843	 -0.0001741	 -0.0009105	 -106.6095	 +2.9394	 +0.0000	 +413.8180	 12087296	 13828	 335547891	 0
0	 22	 0	 116	 0	 1572000	 1963469	 -0.02268	 -7.06563	 -6.98199	 -0.2161	 +0.2457	 -0.0270	 +0.67290	 +0.53561	 +0.08235	 +43.04706	 -39.3901	 -4.0272	 +27.8987	 -0.0001743	 -0.0009123	 -106.7490	 +2.9394	 +0.0000	 +413.8180	 12087296	 13828	 335547891	 0
0	 23	 0	 116	 0	 1572000	 1968469	 -0.05127	 -7.02389	 -7.00413	 -0.3093	 +0.1523	 -0.0147	 +0.67278	 +0.53577	 +0.08201	 +43.04706	 -39.4133	 -4.0280	 +27.9133	 -0.0001745	 -0.0009140	 -106.8885	 +2.9394	 +0.0000	 +413.8180	 12087296	 13828	 335547891	 0
0	 24	 0	 116	 0	 1572000	 1973469	 -0.04049	 -7.05708	 -7.00035	 -0.3442	 +0.2086	 +0.0005	 +0.67265	 +0.53593	 +0.08167	 +43.04706	 -39.4366	 -4.0288	 +27.9278	 -0.0001747	 -0.0009158	 -107.0281	 +2.9394	 +0.0000	 +413.8180	 12087296	 13828	 335547891	 0
0	 25	 0	 116	 0	 1572000	 1978469	 -0.03231	 -7.06800	 -7.00716	 -0.3572	 +0.0880	 +0.0023	 +0.67252	 +0.53608	 +0.08133	 +43.04706	 -39.4598	 -4.0297	 +27.9423	 -0.0001749	 -0.0009176	 -107.1678	 +2.9394	 +0.0000	 +413.8180	 12087296	 13828	 335547891	 0
0	 26	 0	 116	 0	 1572000	 1983469	 -0.02320	 -7.05886	 -6.99754	 -0.3759	 +0.1334	 -0.0510	 +0.67238	 +0.53623	 +0.08098	 +43.04706	 -39.4830	 -4.0306	 +27.9567	 -0.0001750	 -0.0009194	 -107.3076	 +2.9394	 +0.0000	 +413.8180	 12087296	 13828	 335547891	 0
0	 27	 0	 116	 0	 1572000	 1988469	 -0.02146	 -7.04087	 -7.00627	 -0.3160	 +0.1053	 +0.0524	 +0.67225	 +0.53638	 +0.08064	 +43.00000	 -39.5062	 -4.0314	 +27.9712	 -0.0001752	 -0.0009212	 -107.4474	 -3.1416	 +0.0000	 +413.8180	 12087296	 13828	 335547891	 0
0	 28	 0	 116	 0	 1572000	 1993469	 -0.05751	 -7.07384	 -6.94970	 -0.3902	 +0.1261	 +0.0754	 +0.67212	 +0.53653	 +0.08031	 +43.00000	 -39.5294	 -4.0325	 +27.9859	 -0.0001754	 -0.0009230	 -107.5873	 -3.1416	 +0.0000	 +413.8180	 12087296	 13828	 335547891	 0
0	 29	 0	 116	 0	 1572000	 1998469	 -0.06046	 -7.02828	 -7.02807	 -0.3376	 +0.1155	 +0.0372	 +0.67199	 +0.53668	 +0.07997	 +43.09412	 -39.5528	 -4.0332	 +28.0005	 -0.0001756	 -0.0009248	 -107.7272	 -3.1416	 +0.0000	 +413.8180	 12087296	 13828	 335547891	 0
0	 30	 0	 116	 0	 1572000	 2003462	 -0.01265	 -7.04745	 -6.96855	 -0.3450	 +0.2046	 -0.0024	 +0.67187	 +0.53683	 +0.07963	 +43.00000	 -39.5758	 -4.0341	 +28.0150	 -0.0001758	 -0.0009266	 -107.8673	 -3.1416	 +0.0000	 +413.8180	 12087296	 13828	 335547891	 0
0	 31	 0	 116	 0	 1572000	 2008469	 -0.07900	 -7.03363	 -6.98359	 -0.3330	 +0.1403	 -0.0176	 +0.67173	 +0.53699	 +0.07929	 +43.00000	 -39.5992	 -4.0349	 +28.0298	 -0.0001759	 -0.0009283	 -108.0074	 -3.1416	 +0.0000	 +413.8180	 12087296	 13828	 335547891	 0
0	 32	 0	 116	 0	 1572000	 2013469	 -0.00306	 -7.06394	 -7.01479	 -0.3468	 +0.0845	 +0.1011	 +0.67161	 +0.53713	 +0.07896	 +43.00000	 -39.6224	 -4.0357	 +28.0442	 -0.0001761	 -0.0009301	 -108.1476	 -3.1416	 +0.0000	 +413.8180	 12087296	 13828	 335547891	 0
0	 33	 0	 116	 0	 1572000	 2018469	 -0.00706	 -7.04661	 -6.99842	 -0.3667	 +0.1518	 +0.0085	 +0.67148	 +0.53729	 +0.07862	 +42.90588	 -39.6455	 -4.0365	 +28.0586	 -0.0001763	 -0.0009319	 -108.2878	 -3.1416	 +0.0000	 +413.8180	 12087296	 13828	 335547891	 0
0	 34	 0	 116	 0	 1572000	 2023469	 +0.00285	 -7.06763	 -6.98459	 -0.3054	 +0.2558	 -0.0012	 +0.67135	 +0.53745	 +0.07828	 +43.09412	 -39.6686	 -4.0375	 +28.0731	 -0.0001765	 -0.0009337	 -108.4282	 -3.1416	 +0.0000	 +413.8180	 12087296	 13828	 335547891	 0
0	 35	 0	 116	 0	 1572000	 2028462	 -0.02785	 -7.03044	 -7.03535	 -0.3832	 +0.1595	 +0.0053	 +0.67122	 +0.53760	 +0.07794	 +43.09412	 -39.6919	 -4.0381	 +28.0875	 -0.0001767	 -0.0009355	 -108.5686	 -3.1416	 +0.0000	 +413.8180	 12087296	 13828	 335547891	 0
0	 36	 0	 116	 0	 1572000	 2033462	 -0.04440	 -7.05572	 -7.01473	 -0.2712	 +0.1282	 -0.0391	 +0.67109	 +0.53776	 +0.07760	 +43.00000	 -39.7152	 -4.0389	 +28.1020	 -0.0001768	 -0.0009373	 -108.7090	 -3.1416	 +0.0000	 +413.8180	 12087296	 13828	 335547891	 0
0	 37	 0	 116	 0	 1572000	 2038462	 -0.00666	 -7.03413	 -7.01541	 -0.3918	 +0.1215	 +0.0419	 +0.67096	 +0.53790	 +0.07726	 +43.09412	 -39.7384	 -4.0396	 +28.1165	 -0.0001770	 -0.0009391	 -108.8496	 -3.1416	 +0.0000	 +413.8180	 12087296	 13828	 335547891	 0
0	 38	 0	 116	 0	 1572000	 2043469	 -0.01701	 -7.03696	 -6.97223	 -0.3889	 -0.0317	 -0.0157	 +0.67082	 +0.53805	 +0.07691	 +43.00000	 -39.7615	 -4.0404	 +28.1311	 -0.0001772	 -0.0009409	 -108.9902	 -3.1416	 +0.0000	 +413.8180	 12087296	 13828	 335547891	 0
0	 39	 0	 116	 0	 1572000	 2048463	 +0.00129	 -7.10951	 -6.94840	 -0.3907	 +0.1288	 +0.0130	 +0.67068	 +0.53820	 +0.07657	 +43.09412	 -39.7846	 -4.0416	 +28.1456	 -0.0001774	 -0.0009427	 -109.1309	 -3.1416	 +0.0000	 +413.8180	 12087296	 13828	 335547891	 0
0	 40	 0	 116	 0	 1572000	 2053462	 -0.01443	 -7.07069	 -6.98087	 -0.3164	 +0.1570	 +0.0660	 +0.67056	 +0.53835	 +0.07623	 +43.00000	 -39.8078	 -4.0426	 +28.1601	 -0.0001776	 -0.0009445	 -109.2717	 -3.1416	 +0.0000	 +413.8180	 12087296	 13828	 335547891	 0
0	 41	 0	 116	 0	 1572000	 2058462	 -0.04341	 -7.05868	 -6.99297	 -0.3003	 +0.1153	 +0.0434	 +0.67043	 +0.53850	 +0.07589	 +43.00000	 -39.8311	 -4.0434	 +28.1747	 -0.0001778	 -0.0009463	 -109.4125	 -3.1416	 +0.0000	 +413.8180	 12087296	 13828	 335547891	 0
0	 42	 0	 116	 0	 1572000	 2063463	 -0.03142	 -7.04801	 -6.99563	 -0.3908	 +0.1288	 -0.0175	 +0.67030	 +0.53865	 +0.07555	 +43.00000	 -39.8544	 -4.0442	 +28.1893	 -0.0001779	 -0.0009481	 -109.5534	 -3.1416	 +0.0000	 +413.8180	 12087296	 13828	 335547891	 0
0	 43	 0	 116	 0	 1572000	 2068462	 -0.02654	 -7.04034	 -6.95976	 -0.3362	 +0.1232	 +0.0037	 +0.67016	 +0.53880	 +0.07521	 +43.09412	 -39.8776	 -4.0451	 +28.2040	 -0.0001781	 -0.0009499	 -109.6944	 +2.5395	 +0.0000	 +413.8180	 12087296	 13828	 335547891	 0
0	 44	 0	 116	 0	 1572000	 2073487	 -0.01764	 -7.03562	 -7.00341	 -0.3706	 +0.0728	 -0.0037	 +0.67003	 +0.53895	 +0.07486	 +43.00000	 -39.9008	 -4.0459	 +28.2186	 -0.0001783	 -0.0009517	 -109.8354	 +2.5394	 +0.0000	 +413.8180	 12087296	 13828	 335547891	 0
0	 45	 0	 116	 0	 1572000	 2078526	 -0.06168	 -7.05155	 -7.00654	 -0.3876	 +0.1197	 +0.0358	 +0.66989	 +0.53910	 +0.07452	 +43.09412	 -39.9242	 -4.0467	 +28.2332	 -0.0001785	 -0.0009535	 -109.9766	 +2.5394	 +0.0000	 +413.8180	 12087296	 13828	 335547891	 0
